year,month,day,lat,lon,city,country,shape,duration_sec
1950,1,2,40.714,-74.006,new york city,us,oval,900
1950,7,15,40.736,-74.173,newark,us,sphere,300
1951,7,1,33.749,-84.388,atlanta,us,unknown,120
1952,6,15,33.987,-118.184,maywood,us,circle,300
1952,7,15,47.496,-121.786,north bend,us,other,180
1953,4,1,42.375,-71.106,cambridge,us,sphere,180
1953,8,1,38.754,-90.331,berkeley,us,fireball,300
1954,6,1,41.664,-83.555,toledo,us,disk,60
1954,7,15,39.952,-75.164,philadelphia,us,disk,3600
1954,11,14,31.583,-96.611,thelma (south of),us,disk,300
1955,6,30,35.866,-101.973,dumas,us,light,600
1956,5,15,28.19,-80.601,pine castle afb,,light,2700
1956,6,30,29.763,-95.363,houston,us,triangle,900
1957,1,1,32.783,-96.8,dallas,us,unknown,20
1957,6,30,42.547,-83.211,birmingham,us,unknown,300
1957,7,15,39.1,-94.578,kansas city,us,light,10800
1957,9,20,36.866,-87.489,hopkinsville,us,cigar,600
1958,5,16,39.162,-84.457,cincinnati,us,diamond,86400
1958,6,30,29.796,-90.823,thibodaux,us,fireball,90
1959,4,15,40.776,-74.601,mendham,us,disk,300
1959,6,30,40.714,-74.006,new york city (bronx),us,oval,1200
1959,9,15,39.474,-118.776,fallon,us,oval,7200
1960,6,1,39.865,-75.568,chadd&#39s ford,,cylinder,5
1960,6,30,51.514,-0.094,london (uk/england),gb,triangle,25
1960,8,15,42.279,-71.417,framingham,us,oval,1200
1961,5,1,47.307,-122.227,auburn,us,cigar,300
1961,7,16,42.088,-87.981,arlington heights,us,disk,1500
1961,12,17,27.895,-81.973,bartow/mulberry,,sphere,1500
1962,6,1,37.997,-88.92,benton,us,disk,900
1962,7,15,41.85,-87.65,chicago,us,other,1800
1962,9,1,47.606,-122.331,seattle,us,circle,180
1963,3,15,42.309,-87.85,great lakes,,disk,900
1963,6,1,33.542,-117.782,laguna beach (south),us,light,120
1963,6,30,33.835,-117.914,anaheim,us,disk,1200
1963,7,15,45.524,-122.675,portland,us,sphere,1200
1963,12,10,34.257,-85.165,rome,us,oval,1200
1964,6,1,35.46,-94.787,sallisaw,us,light,1800
1964,6,30,40.393,-90.155,lewistown,us,other,120
1964,8,4,42.358,-71.06,boston,us,circle,3600
1964,10,5,44.353,-121.177,terrebonne,us,cigar,600
1965,4,20,28.538,-81.379,orlando,us,disk,900
1965,6,1,39.904,116.408,beijing (china),,sphere,300
1965,6,15,34.167,132.219,ewakuni (japan),,light,300
1965,7,1,32.625,-115.452,mexicali&#44 baja california (mexico),,circle,60
1965,7,15,42.231,-96.097,hornick,us,fireball,120
1965,8,2,40.441,-79.996,pittsburgh,us,oval,20
1965,8,15,41.291,-87.421,lowell,us,sphere,1800
1965,10,10,51.435,-3.18,penarth (uk/wales),gb,circle,180
1965,12,1,41.7,-73.921,poughkeepsie,us,triangle,300
1966,2,1,41.033,-81.249,randolph,us,oval,10
1966,4,15,43.727,-101.984,interior (near),us,disk,900
1966,6,1,41.85,-87.65,chicago,us,disk,300
1966,6,12,42.629,-85.024,vermontville,us,oval,2
1966,6,21,35.233,-97.212,little axe,us,light,300
1966,7,1,39.158,-75.525,dover,us,disk,300
1966,7,15,42.67,-71.302,dracut,us,circle,1200
1966,8,22,47.454,-122.321,seatac,us,unknown,120
1966,9,30,38.419,-82.445,huntington,us,circle,60
1966,11,12,30.332,-81.656,jacksonville,us,chevron,15
1967,3,10,44.271,-71.306,mt. washington,,circle,120
1967,5,5,26.0,-80.167,hallandale/hollywood,,triangle,600
1967,6,1,47.203,-122.239,sumner,us,formation,900
1967,6,15,36.01,-84.27,oak ridge,us,sphere,720
1967,7,1,27.8,-97.396,corpus christi,us,other,600
1967,8,1,33.94,-118.132,downey (north american aviation),us,unknown,120
1967,8,20,38.722,-86.671,huron,us,cigar,300
1967,9,15,38.441,-122.713,santa rosa,us,circle,7
1967,10,15,34.172,-118.378,north hollywood,us,fireball,900
1968,1,1,16.054,108.202,da nang (viet nam),,unknown,600
1968,4,10,48.15,11.583,munich (oberschliessheim army airfield) (germany),de,disk,600
1968,6,1,39.759,-84.192,dayton,us,oval,60
1968,6,3,46.776,-112.566,rocky mountains (east side of ),,other,1500
1968,6,15,29.691,-95.209,pasadena,us,cigar,120
1968,6,30,36.707,-97.085,ponca city,us,light,300
1968,7,7,40.372,-73.999,rumson,us,disk,600
1968,7,20,41.52,-81.556,cleveland heights,us,oval,60
1968,8,15,37.646,-120.684,yosemite pass (in the valley over; nr. nv border),,disk,360
1968,9,30,51.85,-105.033,lanigan (canada),ca,diamond,15
1968,10,25,42.101,-72.59,springfield,us,disk,300
1969,2,15,40.745,-84.937,monroe,us,sphere,20
1969,6,1,47.584,-110.789,highwood,us,disk,900
1969,6,15,39.064,-108.551,grang junction colorado,,disk,120
1969,7,1,34.231,-111.324,payson,us,disk,300
1969,7,15,40.116,-88.243,champaign,us,disk,300
1969,8,15,40.327,-78.922,johnstown,us,triangle,600
1969,10,1,37.775,-122.418,san francisco,us,oval,600
1969,11,13,37.339,-121.894,san jose,us,light,7
1970,2,15,38.834,-104.821,colorado springs,us,unknown,2419200
1970,5,18,27.947,-82.459,tampa,us,oval,3
1970,6,6,49.488,8.465,mannheim (west germany),de,sphere,30
1970,6,25,41.7,-73.921,poughkeepsie,us,disk,240
1970,7,22,42.928,-83.63,grand blanc,us,light,600
1970,9,7,40.441,-79.996,pittsburgh,us,disk,15
1970,10,10,37.154,-83.762,manchester,us,unknown,180
1971,1,10,55.1,-105.3,la ronge (canada),ca,unknown,300
1971,5,1,37.802,-80.446,lewisburg,us,triangle,900
1971,6,10,38.287,-75.688,allen,us,sphere,900
1971,7,4,37.043,-100.921,liberal,us,cigar,1200
1971,8,1,40.728,-115.478,lamoille (above),us,cigar,900
1971,9,15,29.424,-98.493,san antonio,us,oval,60
1971,11,12,34.062,-118.122,monterey park,us,circle,300
1972,3,21,20.423,-86.922,cozumel (mexico),,light,60
1972,6,1,44.801,-90.079,stratford,us,cigar,300
1972,6,15,39.53,-81.506,lowell,us,other,900
1972,6,30,36.072,-79.792,greensboro,us,light,300
1972,7,15,42.327,-122.874,medford,us,light,600
1972,8,20,29.599,-95.171,clark a.f.b (philippines),,sphere,10
1972,9,20,37.251,-92.51,hartville,us,chevron,480
1972,12,1,44.826,-68.694,eddington,us,circle,60
1973,3,13,29.954,-90.075,new orleans,us,circle,7200
1973,5,15,47.253,-122.443,tacoma,us,sphere,120
1973,6,7,29.666,-95.019,la porte,us,disk,60
1973,6,15,26.159,-97.991,weslaco,us,formation,10
1973,7,5,44.754,-108.757,powell,us,unknown,30
1973,7,22,42.585,-87.821,kenosha,us,other,120
1973,8,10,42.585,-87.821,kenosha,us,disk,900
1973,9,15,48.558,-124.083,vancouver island (rural) (canada),,unknown,25200
1973,10,1,43.217,-123.341,roseburg,us,cylinder,7200
1973,10,18,35.227,-80.843,charlotte,us,oval,1800
1973,11,15,40.714,-74.006,new york city (manhattan),us,disk,2
1974,2,14,36.722,-80.823,woodlawn,us,fireball,10
1974,4,29,26.094,-80.125,port everglades/fort lauderdale,,unknown,420
1974,6,1,36.205,138.253,japan,,oval,120
1974,6,1,37.756,-94.306,milo,us,light,30
1974,6,15,42.087,-71.475,bellingham,us,other,300
1974,6,30,19.382,-99.006,reyes/santa rosa (between) (bolivia),,oval,300
1974,7,15,39.276,-121.659,live oak,us,triangle,300
1974,7,21,39.684,-75.75,newark,us,disk,900
1974,8,7,37.683,-87.917,morganfield,us,circle,1800
1974,8,20,39.352,-112.576,delta,us,disk,10
1974,9,15,35.531,-92.12,heber springs&#44 greers ferry lake,,disk,600
1974,10,15,38.834,-104.821,north of colorado springs,,light,5
1974,11,10,43.162,-70.648,york,,triangle,60
1975,1,1,32.808,-98.113,goree/mineral wells (between),,light,14400
1975,3,6,-37.814,144.963,melbourne (vic&#44 australia),au,diamond,1800
1975,4,23,39.689,-84.169,kettering,us,disk,5400
1975,6,1,41.42,-73.955,cold spring,us,oval,900
1975,6,1,37.554,-77.461,richmond,us,disk,1800
1975,6,15,25.981,-80.148,hallandale,,disk,300
1975,6,20,46.358,-94.201,brainerd (near),us,circle,900
1975,6,30,25.79,-80.13,miami beach,us,light,300
1975,7,10,41.776,-72.522,manchester,us,unknown,3600
1975,7,15,38.794,-76.294,wittman,us,triangle,900
1975,8,1,34.267,-118.301,sunland,us,egg,600
1975,8,15,42.558,-70.881,beverly,us,disk,120
1975,9,1,39.091,-94.415,independence,us,disk,60
1975,10,12,-31.952,115.861,perth (w. of; southern cross) (western australia),au,fireball,900
1975,10,21,27.875,-82.851,indian rocks beach,us,light,10
1975,11,20,25.774,-80.194,miami,us,oval,10800
1976,1,2,39.759,-84.192,dayton,us,other,172800
1976,4,15,32.072,-84.233,americus,us,rectangle,20
1976,5,30,41.17,-75.877,mountaintop,,cigar,660
1976,6,1,39.084,-84.509,covington,us,disk,6300
1976,6,10,39.613,-105.016,littleton,us,unknown,480
1976,6,15,42.214,-83.15,wyandotte,us,triangle,600
1976,6,30,43.836,-101.894,cactus flat,us,fireball,5400
1976,7,4,41.261,-85.668,ridinger lake,,rectangle,240
1976,7,15,41.145,-93.654,west liberty,us,circle,20
1976,7,26,41.256,-74.36,warwick,us,light,180
1976,8,15,42.585,-87.821,kenosha,us,triangle,600
1976,9,5,41.314,-81.685,broadview heights,us,disk,180
1976,10,2,32.776,-79.931,charleston afs,,unknown,1200
1976,11,15,43.383,-80.317,cambridge (galt) (canada),ca,formation,900
1977,1,1,34.224,-118.239,la crescenta,us,formation,10800
1977,3,19,32.805,-97.445,lake worth,us,chevron,1200
1977,5,1,21.167,79.65,bhandara (near nagpur) (india),,fireball,15
1977,5,29,43.975,-75.911,watertown,us,cigar,45
1977,6,1,39.143,-77.202,gaithersburg,us,cigar,60
1977,6,15,38.897,-121.076,auburn,us,triangle,3
1977,6,30,61.727,22.263,tuunajarvi (finlnd),,light,60
1977,7,4,47.322,-122.311,federal way,us,circle,1200
1977,7,15,37.775,-122.418,san francisco,us,circle,90
1977,7,30,39.729,-104.831,aurora,us,chevron,180
1977,8,14,38.731,-88.085,olney,us,triangle,60
1977,9,10,31.969,-99.902,texas (empty desert),,cigar,1800
1977,10,24,49.883,-97.167,winnipeg (canada),ca,triangle,60
1977,12,24,32.299,-90.185,jackson,us,unknown,120
1978,2,1,-31.952,115.861,perth (western australia),au,sphere,120
1978,3,21,42.327,-122.874,medford,us,disk,480
1978,5,6,42.154,-88.136,barrington,us,triangle,600
1978,6,1,42.701,-73.109,north adams,us,sphere,120
1978,6,15,19.117,-70.633,jarabacoa (dominican republic),,cigar,300
1978,6,21,42.653,-73.757,albany,us,fireball,20
1978,7,1,44.89,-93.35,edina,us,triangle,150
1978,7,4,35.053,-78.879,fayetteville,us,disk,300
1978,7,15,42.367,-71.304,weston,us,disk,900
1978,7,22,30.367,-89.093,gulfport,us,chevron,300
1978,8,2,43.381,-112.123,shelley,us,light,10
1978,8,15,47.348,-122.114,covington,us,disk,600
1978,8,25,38.441,-122.713,santa rosa,us,oval,20
1978,9,16,55.833,-3.083,edinburgh (uk/scotland),gb,circle,60
1978,10,15,35.474,-83.315,cherokee,us,light,120
1978,11,27,39.15,-123.207,ukiah,us,sphere,600
1979,1,1,33.849,-118.388,redondo beach,us,disk,15
1979,3,20,-33.861,151.205,sydney (nsw&#44 australia),au,circle,5
1979,4,20,40.486,-74.452,new brunswick,us,disk,120
1979,6,1,27.506,-99.507,laredo,us,circle,1800
1979,6,1,-39.493,176.912,napier (new zealand),,other,300
1979,6,20,39.467,-87.414,terre haute (near),us,changing,25
1979,7,1,44.315,-84.765,houghton lake,us,light,1500
1979,7,15,46.602,-120.505,yakima (30 miles east of&#44 on highway 24),us,other,300
1979,8,15,41.387,-80.869,bistolville,,triangle,10
1979,9,1,40.843,-73.293,commack,us,other,900
1979,9,30,41.525,-88.082,joliet,us,egg,5
1979,11,4,51.717,-5.033,milford haven (uk/england),gb,circle,3600
1979,12,29,42.493,-92.343,waterloo (south of),us,unknown,480
1980,2,15,36.852,-121.401,hollister,us,egg,600
1980,4,20,39.759,-84.192,dayton,us,cigar,300
1980,5,25,41.929,-88.75,dekalb,us,circle,1200
1980,6,1,39.514,-121.555,oroville,us,sphere,120
1980,6,15,45.866,-122.405,yacolt,us,disk,120
1980,6,30,27.947,-82.459,tampa,us,circle,120
1980,7,13,44.505,-72.369,hardwick,us,cylinder,40
1980,8,1,45.133,-74.0,ormstown (canada),ca,triangle,120
1980,8,20,46.758,-121.451,gifford pinchot national forrest,,disk,180
1980,9,15,41.778,-96.221,tekamah,us,unknown,480
1980,10,15,40.572,-111.86,sandy,,sphere,60
1980,12,10,36.979,-76.428,newport news,us,other,60
1981,2,23,35.327,-79.256,cameron,us,light,900
1981,5,11,51.204,-2.181,warminster (uk/england),gb,circle,120
1981,6,10,37.548,-121.987,fremont (niles canyon),us,diamond,300
1981,6,18,32.262,-108.914,mondel,us,unknown,900
1981,7,15,36.062,-94.157,fayetteville,us,other,180
1981,8,15,40.37,-109.334,jensen,us,cylinder,360
1981,9,15,30.674,-96.37,bryan,us,other,900
1981,11,10,37.775,-122.418,san francisco,us,other,60
1982,2,15,32.725,-114.624,yuma,us,oval,600
1982,6,1,48.08,-123.101,sequim,us,oval,600
1982,6,10,32.686,-117.182,coronado,us,egg,3
1982,6,20,39.918,-75.072,collingswood,us,light,3600
1982,7,6,39.399,-84.561,hamilton,us,light,120
1982,7,30,33.913,-78.304,holden beach,us,other,30
1982,8,20,42.661,-84.073,fowlerville,us,oval,900
1982,9,20,45.554,-115.46,dixie,us,disk,14400
1982,11,1,34.197,-119.176,oxnard (between port hueneme and point mugu),us,sphere,7
1983,2,28,28.462,-98.549,tilden,us,fireball,300
1983,4,23,44.025,-88.543,oshkosh,us,triangle,900
1983,6,1,42.322,-83.176,dearborn,us,disk,1200
1983,6,15,30.332,-81.656,jacksonville,us,triangle,180
1983,7,10,43.133,-115.69,mountain home,us,oval,900
1983,8,12,37.048,-80.78,pulaski,us,triangle,180
1983,9,10,40.344,-86.665,mulberry (near),us,light,900
1983,11,15,36.853,-75.978,virginia beach,us,light,900
1984,3,14,40.888,-79.589,cowansville,us,triangle,120
1984,5,15,34.597,-83.763,cleveland,us,other,600
1984,6,1,41.76,-81.141,perry (rural highway&#44 s.r.22),us,other,600
1984,6,17,41.453,-82.183,lorain,us,circle,420
1984,7,14,36.835,-76.299,portsmouth,us,circle,300
1984,8,10,48.76,-122.487,bellingham,us,unknown,20
1984,9,1,32.798,-117.239,pacific beach,us,oval,1800
1984,10,10,29.763,-95.363,houston,us,circle,60
1984,11,15,30.518,-82.948,jasper (rural part of),us,unknown,240
1985,1,27,45.841,-119.288,hermiston,us,other,45
1985,4,30,30.45,-93.433,dequincy,us,unknown,3600
1985,6,1,37.567,126.978,seoul (south korea),,other,180
1985,6,2,44.46,-110.828,old faithful,,unknown,60
1985,6,18,43.798,-123.058,cottage grove,us,sphere,10
1985,6,30,39.006,-77.429,sterling,us,circle,120
1985,7,15,40.345,-74.184,holmdel,us,changing,1200
1985,8,15,41.312,-81.568,sagamore hills,us,rectangle,300
1985,9,5,58.302,-134.42,juneau,us,circle,7200
1985,10,10,53.8,-1.583,leeds (uk/england),gb,triangle,600
1985,11,20,42.911,-87.861,south milwaukee,us,light,20
1986,2,22,36.835,-76.299,portsmouth,us,other,60
1986,4,15,33.578,-101.855,lubbock,us,other,300
1986,6,1,43.013,-83.688,flint,us,unknown,600
1986,6,15,37.781,-81.363,fairdale,us,unknown,45
1986,7,1,39.262,-121.015,nevada city,us,disk,900
1986,7,31,30.058,-95.19,kingwood,,diamond,60
1986,8,15,40.831,-84.929,decatur,us,sphere,30
1986,9,20,32.222,-110.926,tucson,us,unknown,20
1986,10,17,30.464,-86.553,eglin afb,,disk,180
1986,12,31,21.418,-157.804,kaneohe,us,cigar,5
1987,3,15,33.509,-111.898,scottsdale,us,light,180
1987,5,1,44.547,-69.622,winslow,us,unknown,900
1987,6,1,37.775,-122.418,san francisco,us,other,14400
1987,6,15,33.448,-112.074,bullhead city/phoenix (between),,fireball,600
1987,7,4,39.49,-91.32,frankford,us,light,3600
1987,7,20,45.624,-70.255,jackman,us,sphere,3600
1987,8,13,39.924,-83.809,springfield,us,triangle,240
1987,8,20,40.995,-73.879,hastings on hudson,,triangle,10
1987,10,8,36.948,-81.085,wytheville,us,light,720
1987,11,1,35.316,-81.176,dallas,us,light,600
1987,12,20,27.998,-82.452,tampa/miami (on highway between),,unknown,900
1988,2,25,27.938,-82.286,brandon,us,light,300
1988,5,1,29.763,-95.363,houston,us,unknown,1
1988,6,1,27.1,-82.458,venice beach,us,unknown,300
1988,6,15,34.052,-118.243,los angeles,us,diamond,1200
1988,7,1,35.265,-116.074,baker,us,light,180
1988,7,16,33.814,-116.679,san jacinto mountain,,sphere,10
1988,8,8,38.869,-89.089,shobonier,us,other,2
1988,8,15,39.95,-119.6,sutcliff,,unknown,600
1988,9,12,37.334,-80.963,oakvale,us,cylinder,2
1988,10,15,47.568,-122.631,bremerton,us,circle,1800
1988,10,28,25.774,-80.194,miami,us,unknown,60
1988,12,14,40.771,-84.616,ohio city,us,disk,600
1989,2,12,42.585,-87.821,kenosha,us,other,600
1989,5,1,32.753,-117.116,lemoore/i-5 corridor,,other,900
1989,6,1,34.52,-105.87,new mexico,,sphere,900
1989,6,1,40.615,-74.771,whitehouse station,us,disk,120
1989,6,21,43.15,-79.5,mississauga (canada),ca,triangle,15
1989,7,3,39.824,-97.632,belleville,us,triangle,30
1989,7,26,45.487,-122.802,beaverton,us,cylinder,20
1989,8,22,41.848,-74.548,grahamsville,us,rectangle,300
1989,10,1,37.99,-84.18,winchester (near),us,oval,300
1989,10,17,37.339,-121.894,san jose,us,triangle,10
1989,11,14,35.468,-97.516,oklahoma (rural),,sphere,2700
1989,12,1,39.091,-94.415,independence,us,triangle,180
1990,1,7,51.281,-0.963,hook hampshire (uk/england),,disk,120
1990,2,15,42.083,-71.019,brockton,us,triangle,240
1990,4,27,34.145,-107.843,datil,us,disk,5
1990,6,1,40.726,-73.514,levitown,,diamond,300
1990,6,8,39.375,-122.543,stonyford,us,sphere,20
1990,6,30,33.509,-111.898,scottsdale,us,triangle,600
1990,7,3,39.097,-120.032,lake tahoe,,circle,180
1990,7,15,39.729,-121.836,chico,us,disk,120
1990,8,10,47.717,-53.5,cavendish (canada),ca,light,420
1990,9,1,39.158,-75.525,dover,us,circle,900
1990,10,1,42.097,-79.236,jamestown,us,light,1200
1990,10,29,36.058,-90.497,paragould,us,disk,180
1990,11,20,40.89,-81.598,canal fulton,us,unknown,120
1991,1,17,33.223,43.679,iraq (10 km inside border with kuwait),,triangle,300
1991,3,26,46.257,-99.557,wishek,us,sphere,120
1991,5,5,35.147,-107.851,grants (southeast of),us,light,120
1991,6,1,38.752,-121.287,roseville,us,cigar,600
1991,6,12,40.292,-79.341,kingston area,,triangle,1800
1991,7,1,42.218,-78.276,cuba,us,triangle,600
1991,7,15,33.92,-80.342,sumter,us,disk,600
1991,8,5,45.538,-121.568,mt. hood,,circle,3
1991,8,29,36.478,-120.758,new idria,,triangle,9000
1991,9,17,34.254,-110.029,show low,us,formation,10
1991,10,28,34.052,-118.243,los angeles,us,circle,900
1991,12,10,42.963,-85.668,grand rapids,us,other,3.5
1992,2,27,38.582,-121.493,sacramento,us,circle,1800
1992,4,15,36.835,-76.299,portsmouth,us,disk,1200
1992,5,15,40.144,-75.116,willow grove,us,cone,5
1992,6,1,34.081,-118.072,rosemead,us,oval,540
1992,6,15,37.253,-115.8,area 51,,oval,43200
1992,6,30,51.083,-3.0,somerset (uk/england),gb,unknown,720
1992,7,10,48.705,-119.438,tonasket,us,unknown,1800
1992,8,5,39.12,-90.328,jerseyville,us,light,600
1992,8,24,25.667,-80.308,pinecrest,us,disk,2
1992,10,1,32.54,-82.904,dublin (near warner robins),us,triangle,1200
1992,10,15,33.578,-101.855,lubbock,us,cigar,1800
1992,11,20,22.573,88.364,calcutta (kolkata) (india),,diamond,600
1993,1,12,43.061,-88.106,brookfield,us,triangle,900
1993,2,20,-37.814,144.963,melbourne (vic&#44 australia),au,disk,480
1993,3,20,33.814,-115.899,joshua tree national monument,,fireball,2400
1993,5,7,34.87,-111.76,sedona,us,formation,1800
1993,6,1,43.221,-76.815,wolcott,us,unknown,900
1993,6,1,45.783,-108.5,billings,us,light,20
1993,6,15,37.74,-121.424,tracy,us,light,180
1993,6,15,39.753,-79.081,salisbury,us,triangle,240
1993,7,1,36.081,-79.169,efland,us,triangle,1800
1993,7,10,40.068,-74.531,new egypt,us,disk,240
1993,7,31,45.22,-63.318,brentwood short&#39s lake (canada),,oval,240
1993,8,15,38.806,-123.016,cloverdale,us,flash,240
1993,9,6,47.606,-122.331,seattle,us,triangle,6
1993,10,4,42.231,-83.747,unknown,,circle,90
1993,11,2,37.975,-87.556,evansville,us,triangle,1800
1993,12,15,41.844,-79.145,warren,us,triangle,900
1994,1,30,50.833,12.917,chemnitz (germany),de,oval,20
1994,3,10,33.979,-118.032,whittier,us,circle,300
1994,4,6,42.386,-82.912,grosse pointe,us,light,5
1994,5,2,46.483,-67.417,glassville (canada),ca,diamond,300
1994,5,20,40.441,-79.996,pittsburgh,us,oval,12
1994,6,1,32.166,-82.9,georgia,,flash,2
1994,6,12,30.192,-81.371,sawgrass,us,other,360
1994,6,15,32.794,34.99,haifa (israel),,circle,120
1994,7,1,42.267,-72.669,easthampton,us,triangle,720
1994,7,15,33.749,-115.323,california desert (interstate 8),,triangle,600
1994,7,23,42.143,-77.055,corning,us,triangle,5
1994,8,7,42.241,-83.613,ypsilanti,us,formation,2700
1994,8,18,39.354,-84.127,morrow,us,disk,600
1994,9,1,35.248,-93.049,pottsville,us,sphere,300
1994,9,16,47.08,-122.05,carbonado,us,changing,1800
1994,10,2,28.635,77.225,new delhi (india),,other,60
1994,10,15,39.601,-82.946,circleville,us,disk,60
1994,10,24,38.969,-77.341,reston,us,triangle,40
1994,11,15,36.474,-81.805,mountain city,us,triangle,1200
1994,12,14,41.238,-80.664,vienna,us,other,32400
1994,12,29,43.072,-74.693,oppenhium,,oval,300
1995,1,4,41.421,-76.059,noxen,us,unknown,300
1995,1,15,40.947,-124.099,mckinleyville,us,unknown,2700
1995,1,22,38.901,-77.266,vienna,us,unknown,2
1995,2,3,34.092,-117.434,fontana,us,unknown,1200
1995,2,15,38.582,-121.493,sacramento,us,unknown,45
1995,2,22,38.627,-90.198,st. louis,us,unknown,4
1995,3,6,39.961,-82.999,columbus,us,unknown,180
1995,3,12,34.001,-81.035,columbia,us,unknown,30
1995,3,15,42.607,-83.929,howell,us,triangle,1200
1995,3,24,25.552,-80.633,north dade,,unknown,2
1995,4,1,42.204,-72.617,holyoke,us,light,1200
1995,4,12,40.121,-75.34,norristown,us,circle,1800
1995,4,19,42.099,-75.918,binghamton,us,unknown,5
1995,4,30,32.715,-117.156,san diego,us,unknown,4500
1995,5,10,33.837,-109.964,whiteriver,us,light,300
1995,5,15,-33.138,81.826,indian ocean (location unspecified),,circle,120
1995,5,24,40.328,-79.616,jeannette,us,unknown,60
1995,6,1,33.48,-97.044,mt. springs,,cigar,7
1995,6,1,44.519,-88.02,kingsford/green bay (between),,disk,20
1995,6,6,32.783,-96.8,dallas,us,light,10
1995,6,12,37.775,-122.418,san francisco,us,unknown,1800
1995,6,15,35.084,-106.651,albuquerque,us,disk,30
1995,6,20,33.247,-95.9,commerce,us,circle,300
1995,6,25,47.008,-122.908,tumwater,us,unknown,1500
1995,7,1,36.728,-108.218,farmington,us,cone,3600
1995,7,4,47.253,-122.443,tacoma (waterfront area),us,circle,300
1995,7,15,34.066,-84.677,acworth,us,circle,30
1995,7,16,33.746,-117.867,santa ana,us,unknown,900
1995,7,22,39.802,-89.644,springfield,us,unknown,60
1995,7,28,47.606,-122.331,seattle,us,unknown,300
1995,8,1,47.606,-122.331,seattle,us,unknown,2
1995,8,6,42.292,-85.587,kalamazoo,us,unknown,300
1995,8,12,40.29,-76.934,enola,us,fireball,10
1995,8,15,47.447,-122.46,vashon island,,unknown,2
1995,8,17,47.527,-122.313,south park,us,unknown,90
1995,8,23,33.835,-117.914,anaheim,us,unknown,180
1995,8,25,42.331,-83.046,detroit,us,other,60
1995,9,1,36.208,-115.983,pahrump,us,light,720
1995,9,11,40.761,-111.89,salt lake city,us,unknown,60
1995,9,15,61.581,-149.439,wasilla,us,light,600
1995,9,20,44.519,-88.02,green bay,us,diamond,1500
1995,9,25,47.606,-122.331,seattle,us,triangle,120
1995,10,1,30.267,-97.743,austin,us,unknown,5400
1995,10,14,46.324,-117.971,dayton,us,unknown,5
1995,10,17,30.239,-81.386,ponte vedra beach,us,other,180
1995,10,25,54.785,-7.474,sion mills (northern ireland),,fireball,45
1995,11,1,42.163,-71.042,randolph,us,circle,30
1995,11,8,45.483,-118.829,pilot rock,us,light,3600
1995,11,15,43.039,-87.906,milwaukee,us,fireball,15
1995,11,18,43.234,-86.248,muskegon,us,unknown,720
1995,11,20,47.568,-122.631,bremerton,us,unknown,2
1995,12,4,32.269,-107.758,deming,us,changing,3600
1995,12,15,37.9,-86.755,hawesville,us,changing,300
1995,12,30,45.663,-110.56,livingston,us,fireball,10
1996,1,9,39.084,-77.153,rockville,us,unknown,660
1996,1,26,44.304,-68.616,sedgewick,,unknown,120
1996,2,9,47.606,-122.331,seattle,us,unknown,300
1996,2,19,47.998,-122.44,whidbey island,,unknown,10
1996,2,28,47.674,-122.12,redmond,us,unknown,4
1996,3,9,40.797,-74.482,morristown,us,other,2
1996,3,22,32.364,-88.704,meridian,us,unknown,20
1996,3,30,41.451,-75.612,throop,us,light,20
1996,4,5,32.715,-117.156,san diego,us,unknown,600
1996,4,14,45.869,-84.728,st. ignace,us,unknown,300
1996,4,20,44.412,-71.723,gilman,us,unknown,240
1996,4,28,52.248,20.981,mile 69,,unknown,15
1996,5,5,37.631,-122.41,san bruno,us,unknown,300
1996,5,12,38.978,-122.838,kelseyville,us,unknown,2700
1996,5,21,40.382,-80.393,burgettstown,us,triangle,180
1996,6,1,27.853,-82.383,gibsonton,us,light,30
1996,6,1,40.327,-78.922,johnstown,us,oval,3
1996,6,10,23.81,90.413,dhaka (bangladesh),,disk,180
1996,6,15,43.383,-80.317,cambridge (canada),ca,oval,23
1996,6,17,41.494,-87.522,dyer,us,diamond,30
1996,6,25,38.558,-91.012,washington,us,diamond,240
1996,7,1,46.602,-120.505,yakima,us,unknown,1200
1996,7,4,44.763,-85.621,traverse city,us,other,30
1996,7,15,41.21,-74.608,sussex city,,other,60
1996,7,23,25.79,-80.13,miami beach,us,triangle,5
1996,8,1,41.558,-73.052,waterbury,us,rectangle,600
1996,8,10,34.093,-118.329,no. hollywood,,sphere,5
1996,8,15,38.225,-80.533,richwood,us,formation,2
1996,8,24,39.439,-98.694,osborne,us,unknown,210
1996,9,8,47.606,-122.332,seattle to tokyo (2 nwa flt 007),,sphere,10800
1996,9,15,34.628,-86.274,woodville,us,triangle,180
1996,9,25,51.75,-1.25,oxford (uk/england),gb,unknown,600
1996,10,9,32.269,-107.758,deming (near),us,other,30
1996,10,20,31.846,-102.367,odessa,us,diamond,300
1996,11,2,41.6,-76.442,new albany,us,unknown,720
1996,11,16,36.175,-115.136,las vegas,us,light,3600
1996,11,23,37.884,-121.27,french camp,us,unknown,300
1996,11,30,47.447,-122.46,vashon island,,unknown,1
1996,12,11,33.521,-86.802,birmingham,us,unknown,105
1996,12,17,49.674,-124.932,comox bay (canada),,unknown,4
1996,12,24,34.746,-92.289,little rock,us,light,600
1997,1,1,37.964,-91.832,tom sauk moutain,,light,600
1997,1,15,34.001,-81.035,columbia,us,light,4
1997,1,29,41.66,-71.456,east greenwich,us,disk,300
1997,2,12,29.424,-98.493,san antonio,us,triangle,15
1997,2,25,51.114,20.848,skarysko-kamienna (poland),,triangle,10
1997,3,6,38.34,-122.7,rohnert park (sonoma state university),us,sphere,10800
1997,3,12,37.932,-121.695,brentwood,us,formation,30
1997,3,13,33.448,-112.073,phoenix,us,other,300
1997,3,13,33.306,-111.841,chandler,us,unknown,600
1997,3,13,33.448,-112.073,phoenix,us,rectangle,600
1997,3,15,38.842,-106.131,buena vista,us,oval,600
1997,3,20,33.448,-112.073,phoenix,us,other,600
1997,3,27,42.271,-83.726,ann arbor,us,light,5
1997,4,1,43.75,-79.2,scarborough (canada),ca,triangle,30
1997,4,8,38.292,-122.457,sonoma,us,chevron,4
1997,4,15,40.274,-76.885,harrisburg (area),us,formation,1200
1997,4,22,42.263,-71.803,worcester,us,egg,30
1997,4,30,42.327,-71.546,westboro/marlboro,,other,900
1997,5,5,37.495,-120.846,turlock,us,light,3
1997,5,11,45.417,-75.7,ottawa (canada),ca,circle,300
1997,5,15,41.683,-86.25,south bend,us,triangle,120
1997,5,25,39.135,-121.171,skies over sierra nevada,,light,600
1997,6,1,39.391,-74.594,egg harbor township,,egg,3000
1997,6,1,34.009,-118.104,montebello,us,circle,40
1997,6,2,45.583,-72.0,windsor (canada),ca,disk,300
1997,6,9,42.792,-83.628,holly,us,triangle,180
1997,6,14,34.721,-116.159,ludlow,us,unknown,900
1997,6,15,44.521,-68.998,swanville,us,light,300
1997,6,20,46.324,-120.007,sunnyside (granger&#44 on hwy 82),us,light,300
1997,6,24,36.748,-119.771,fresno,us,light,3600
1997,6,30,35.386,-94.399,fort smith,,light,3600
1997,7,3,42.594,-86.102,fennville,us,sphere,300
1997,7,4,40.778,-89.966,elmwood,us,light,10
1997,7,4,38.771,-90.371,hazelwood,us,oval,5
1997,7,4,37.883,-87.049,rockport,us,unknown,2
1997,7,10,47.186,-122.292,puyallup,us,unknown,900
1997,7,14,37.669,-122.08,hayward,us,fireball,36
1997,7,15,35.245,-81.341,kings mtn.,,light,30
1997,7,20,35.278,-93.134,russellville,us,light,3600
1997,7,26,48.199,-122.124,arlington,us,changing,1200
1997,8,1,45.911,-77.075,chapeau (canada),,other,2
1997,8,5,36.974,-122.03,santa cruz,us,diamond,2700
1997,8,12,45.086,-93.263,fridley,us,sphere,10
1997,8,15,41.111,-112.025,clearfield,us,triangle,15
1997,8,20,48.367,-53.867,lethbridge (canada),ca,triangle,15
1997,8,28,36.909,-111.473,page (lake powell),us,light,900
1997,9,7,29.187,-89.937,gulf of mexico,,cigar,300
1997,9,16,44.98,-93.264,minneapolis,us,other,120
1997,9,25,43.667,-79.417,toronto (canada),ca,light,900
1997,10,2,34.052,-118.243,los angeles (malibu beach),us,sphere,3
1997,10,12,29.994,-90.242,kenner (34th st.),us,disk,1260
1997,10,15,46.331,-123.637,rosburg,us,triangle,240
1997,10,20,53.533,-0.05,grimsby (uk/england),gb,egg,120
1997,10,29,31.969,-99.902,childress (approx 20 miles north of,,light,7
1997,11,7,30.267,-97.743,austin,us,light,1800
1997,11,14,43.112,-84.986,palo,us,triangle,1800
1997,11,14,46.716,-122.953,centralia,us,sphere,180
1997,11,15,40.802,-124.162,eureka,us,triangle,180
1997,11,22,35.084,-106.651,albuquerque,us,other,180
1997,12,1,37.775,-122.418,san francisco (observed from),us,other,20
1997,12,9,39.53,-119.813,reno,us,circle,1800
1997,12,17,29.187,-82.14,ocala,us,fireball,10
1997,12,31,30.367,-89.093,gulfport,us,triangle,60
1998,1,6,34.216,-119.037,camarillo,us,other,180
1998,1,13,40.962,-82.854,new washington,us,unknown,30
1998,1,24,30.166,-81.707,orange park (outside jacksonville),us,unknown,60
1998,2,1,34.024,-118.171,east los angeles,us,triangle,300
1998,2,10,37.369,-122.035,sunnyvale,us,other,10
1998,2,15,41.6,-83.59,toledo/maumee,,other,150
1998,2,24,29.763,-95.363,houston,us,cigar,900
1998,3,1,42.307,-74.252,windham,us,formation,300
1998,3,7,27.86,-80.447,sebastian inlet,,light,300
1998,3,8,32.461,-84.988,columbus,us,changing,300
1998,3,13,14.54,-74.968,caribbean sea (u.s. navy ship),,formation,120
1998,3,15,38.834,-88.772,farina,us,fireball,1200
1998,3,24,41.136,-73.284,southport,us,circle,15
1998,3,29,46.602,-120.505,yakima,us,changing,600
1998,4,3,44.811,-91.498,eau claire,us,diamond,15
1998,4,11,32.745,-116.998,spring valley,us,fireball,3600
1998,4,15,35.846,-86.39,murfreesboro,us,sphere,300
1998,4,21,39.921,-105.086,broomfield,us,teardrop,120
1998,4,23,34.098,-118.326,hollywood,us,light,600
1998,4,30,36.586,-79.395,danville,us,teardrop,300
1998,5,8,26.318,-80.1,deerfield beach,us,light,600
1998,5,15,38.677,-87.529,vincennes,us,triangle,300
1998,5,20,41.124,-111.973,hill afb,,chevron,900
1998,5,25,43.073,-89.401,madison,us,cylinder,300
1998,6,1,46.997,-120.547,ellensburg,us,light,8
1998,6,1,46.811,-90.818,bayfield (near&#44 lake superior&#44 south shore),us,fireball,5
1998,6,6,55.833,-3.083,edinburgh (uk/scotland),gb,fireball,300
1998,6,9,36.968,-82.93,lynch mountain,,other,1100
1998,6,15,36.778,-119.418,boy scout camp royenea,,disk,600
1998,6,15,35.653,-97.478,edmond,us,fireball,5
1998,6,20,36.312,-95.616,claremore,us,sphere,15
1998,6,24,30.267,-97.743,austin (area),us,other,2700
1998,6,29,39.53,-119.813,reno,us,circle,2700
1998,7,1,-33.482,150.136,lithgow (nsw&#44 australia),au,light,15
1998,7,5,41.692,-94.363,panora,us,sphere,15
1998,7,10,40.911,-73.783,new rochelle,us,cigar,10
1998,7,13,43.467,-112.033,idaho falls,us,triangle,30
1998,7,15,31.107,-97.764,killeen/willow springs (area),,flash,5
1998,7,19,37.642,-94.624,arcadia,us,unknown,300
1998,7,23,35.386,-94.399,fort smith (about 20 miles sw),,light,600
1998,7,27,41.603,-73.088,i-84 exit about 1min off of highway.,,unknown,300
1998,8,1,38.627,-90.198,st. louis,us,light,120
1998,8,6,44.637,-123.105,albany,us,cone,45
1998,8,10,43.71,-71.461,center harbor,us,light,16
1998,8,13,31.997,-102.078,midland,us,disk,5
1998,8,15,34.269,-118.781,simi valley,us,light,120
1998,8,19,47.402,-122.323,des moines,us,sphere,1800
1998,8,22,39.886,-104.987,northglenn,us,fireball,480
1998,8,28,44.418,-119.114,mt. vernon,,fireball,5
1998,9,2,42.033,-88.083,schaumburg,us,oval,30
1998,9,7,40.167,-105.101,longmont (approx 8 miles south of&#44 co-i25 interchg),us,light,1
1998,9,12,30.446,-86.579,shalimar,us,fireball,600
1998,9,15,47.606,-122.331,seattle,us,other,1
1998,9,17,42.3,-82.717,belle river (canada),ca,light,420
1998,9,21,33.743,-116.288,bermuda dunes,us,formation,5
1998,9,23,45.524,-122.675,portland,us,other,600
1998,9,23,47.381,-122.234,kent,us,oval,2
1998,9,24,64.751,-147.349,north pole,us,sphere,600
1998,9,26,40.011,-104.717,lochbuie/brighton,,other,600
1998,9,29,43.155,-77.616,rochester,us,fireball,4
1998,10,2,33.234,-97.586,decator,,triangle,300
1998,10,5,33.467,-117.697,dana point,us,fireball,10
1998,10,10,33.448,-112.073,phoenix (north part),us,fireball,15
1998,10,13,36.666,-106.691,heron state park (between dulce and taos),,changing,3600
1998,10,15,41.455,-81.918,westlake,us,light,60
1998,10,18,41.524,-90.516,bettendorf,us,sphere,420
1998,10,20,34.73,-86.586,huntsville,us,triangle,600
1998,10,25,40.793,-77.86,state college,us,disk,900
1998,10,28,47.693,-114.166,polson/pablo,,disk,4
1998,10,31,61.218,-149.9,anchorage,us,circle,10
1998,11,3,43.249,-70.6,ogunquit,us,sphere,1
1998,11,7,34.597,-83.763,cleveland,us,light,60
1998,11,11,41.081,-81.519,akron,us,fireball,90
1998,11,14,42.368,-83.353,livonia,us,fireball,30
1998,11,16,35.988,-96.601,drumright,us,fireball,0.5
1998,11,17,39.729,-121.836,chico,us,triangle,360
1998,11,19,33.448,-112.073,phoenix (west valley),us,light,900
1998,11,23,37.727,-89.217,carbondale,us,changing,10
1998,11,27,38.35,-81.633,charleston,us,fireball,120
1998,12,1,39.026,-122.732,glenhaven,us,cross,6
1998,12,6,38.473,-77.997,culpeper county (location unspecified),us,circle,1500
1998,12,10,36.331,-82.819,i-81 (northbound between mile marker 34 to 38 aprox.),,triangle,180
1998,12,13,41.701,-71.156,fall river,us,light,5
1998,12,15,42.763,-88.214,waterford,us,rectangle,300
1998,12,15,28.538,-81.379,orlando (disney world resort),us,unknown,60
1998,12,18,46.286,-119.283,west richland,us,unknown,3600
1998,12,24,38.846,-77.307,fairfax,us,unknown,1.5
1998,12,31,39.935,-75.031,cherry hill,us,light,300
1999,1,2,47.606,-122.331,seattle,us,light,4
1999,1,7,34.257,-118.6,chatsworth,us,light,3
1999,1,10,39.76,-121.621,paradise (just east of; yankee hill),us,unknown,120
1999,1,14,27.901,-81.586,lake wales,us,fireball,1800
1999,1,16,32.729,-82.72,wrightsville,us,disk,1200
1999,1,23,41.85,-87.65,chicago (1 hours south ofoff i 57),us,disk,900
1999,2,1,35.198,-111.651,flagstaff,us,chevron,600
1999,2,3,42.083,-71.397,franklin,us,oval,2
1999,2,10,51.27,-87.354,lake makokibatan (canada),,sphere,180
1999,2,14,33.109,-96.971,lewisville lake (se) (north of dallas),,light,1800
1999,2,18,47.606,-122.331,seattle,us,unknown,10
1999,2,21,40.714,-74.006,new york city (brooklyn) (bensonhurst),us,light,1800
1999,2,23,33.448,-112.073,phoenix (north of),us,fireball,10
1999,2,27,35.168,-114.572,laughlin,us,formation,180
1999,3,1,36.015,-84.558,piney (lawrence county (rural) ),us,light,600
1999,3,4,47.483,-122.216,renton,us,sphere,1200
1999,3,7,40.116,-88.243,champaign,us,formation,300
1999,3,13,34.344,-117.91,angeles crest hwy,,sphere,5
1999,3,17,44.818,-74.556,moira,us,light,480
1999,3,21,46.185,-123.585,knappa (near; approx 12 miles from astoria),us,unknown,8
1999,3,26,39.007,-76.779,bowie,us,light,4
1999,3,31,47.53,-122.031,issaquah,us,fireball,10
1999,4,5,45.5,-73.583,montreal (canada),ca,circle,120
1999,4,8,52.665,-1.035,leicester (uk/england),gb,formation,40
1999,4,13,38.472,-81.814,poca (3.5 miles north of),us,sphere,600
1999,4,15,33.808,-84.17,stone mountain,us,light,2400
1999,4,19,41.333,-79.123,clarington,us,other,1200
1999,4,23,47.606,-122.331,seattle (north),us,light,15
1999,4,28,-37.814,144.963,melbourne (vic&#44 australia),au,circle,60
1999,5,1,26.011,-80.15,hollywood (at the i-95 overpass @ hollywood blvd.),us,teardrop,20
1999,5,6,41.78,-71.438,cranston,us,egg,3
1999,5,10,35.149,-90.049,memphis,us,disk,75
1999,5,13,46.654,-120.529,selah,us,light,14400
1999,5,17,51.083,-114.083,calgary (canada),ca,other,1500
1999,5,19,32.58,-83.915,hartley valley (blue mountains) (nsw&#44 australia),,other,10
1999,5,23,47.104,-122.433,spanaway,us,other,7
1999,5,30,31.759,-106.486,el paso,us,sphere,900
1999,6,1,53.5,-2.217,manchester (uk/england),gb,triangle,120
1999,6,1,43.072,-70.763,portsmouth,us,oval,30
1999,6,3,42.633,-88.644,delavan,us,circle,300
1999,6,6,37.432,-78.657,virginia (while driving on i-95;  2 hrs s of wash.&#44 d.c.),,cigar,120
1999,6,9,38.582,-121.493,sacramento,us,light,5
1999,6,12,41.627,-88.204,plainfield,us,light,10
1999,6,15,40.761,-111.89,salt lake city (west of),us,triangle,2700
1999,6,15,34.953,-120.435,santa maria,us,oval,900
1999,6,18,29.301,-94.797,galveston,us,formation,1440
1999,6,20,40.466,-80.066,mckees rocks,us,rectangle,5
1999,6,24,47.606,-122.331,seattle (fremont bridge),us,sphere,2
1999,6,27,38.357,-121.987,vacaville (near),us,diamond,1800
1999,6,30,36.666,-106.691,herron lake state park,,cigar,60
1999,7,1,38.892,-89.413,greenville,us,fireball,5
1999,7,4,34.746,-92.289,little rock,us,light,60
1999,7,6,43.159,-79.247,st.catharine&#39s (canada),,cigar,2
1999,7,8,40.245,-75.65,pottstown,us,sphere,60
1999,7,10,45.524,-122.675,portland,us,cigar,300
1999,7,13,30.701,-91.436,new roads,us,triangle,20
1999,7,15,45.253,-73.798,ste-martine (canada),,sphere,8
1999,7,17,39.06,-75.402,north bowers beach,,unknown,1200
1999,7,18,53.5,-2.217,manchester (uk/england),gb,light,180
1999,7,22,39.419,-76.781,owings mills,us,unknown,10
1999,7,24,37.469,-105.869,alamosa (east of&#44 on hwy 160),us,disk,600
1999,7,26,33.548,-86.544,leeds (outside birmingham),us,sphere,5
1999,7,28,48.76,-122.487,bellingham,us,light,5
1999,8,1,40.776,-77.793,boalsburg,us,light,3
1999,8,3,43.073,-89.401,madison,us,light,80
1999,8,7,28.612,-80.808,titusville,us,unknown,20
1999,8,10,38.297,-122.284,napa (near),us,other,480
1999,8,12,35.733,-78.851,apex (n 35 41 25 w 78 45 01),us,triangle,115
1999,8,13,45.639,-122.66,vancouver,us,circle,1200
1999,8,15,47.606,-122.331,seattle (1-90&#44 between mercer island and seattle),us,unknown,30
1999,8,15,34.87,-111.76,sedona,us,flash,2
1999,8,15,50.415,-5.074,newquay&#44 cornwall (uk/england),,circle,30
1999,8,18,38.714,-93.991,holden,us,circle,180
1999,8,20,52.133,-106.667,saskatoon (canada),ca,formation,60
1999,8,22,41.852,-123.903,hwy 199,,fireball,30
1999,8,25,43.25,-79.833,hamilton (canada),ca,light,30
1999,8,29,44.025,-88.543,oshkosh,us,sphere,1
1999,9,1,41.026,-81.73,wadsworth,us,light,45
1999,9,1,41.487,-120.541,alturas,us,unknown,60
1999,9,1,54.573,-1.163,middlesbrough (uk/england),gb,teardrop,600
1999,9,2,42.407,-124.421,gold beach,us,light,180
1999,9,4,35.089,-92.442,conway,us,light,120
1999,9,5,37.678,-113.061,cedar city,us,light,3
1999,9,7,35.222,-97.439,norman,us,unknown,120
1999,9,7,46.027,-79.72,restoule (canada),,light,180
1999,9,9,40.651,-122.364,shasta/sand flat,,disk,60
1999,9,11,47.186,-122.292,puyallup,us,light,300
1999,9,11,35.212,-83.422,nantahala national forest (center of),,light,7200
1999,9,13,36.154,-95.993,tulsa,us,flash,1
1999,9,15,40.121,-90.563,rushville,us,light,2700
1999,9,17,31.252,-93.341,anacoco,us,disk,2400
1999,9,19,34.421,-119.697,santa barbara,us,disk,1800
1999,9,21,47.979,-122.201,everett,us,changing,30
1999,9,25,36.166,-86.784,nashville,us,cigar,60
1999,9,29,-38.383,142.484,warnambool&#44 vic (australia),,unknown,0.05
1999,10,1,41.368,-82.108,elyria,us,triangle,300
1999,10,3,45.781,-122.533,battle ground/vancouver,,circle,5
1999,10,5,33.784,-84.355,los angeles/atlanta (between&#44 not sure where),,cigar,30
1999,10,8,32.857,-116.921,lakeside,us,diamond,600
1999,10,11,34.052,-118.243,los angeles,us,light,300
1999,10,12,49.214,-2.131,jersey,,disk,180
1999,10,14,47.767,-117.354,mead  (near spokane),us,light,3
1999,10,15,36.113,-89.262,newbern,us,light,120
1999,10,16,33.089,-96.886,the colony,us,triangle,15
1999,10,19,34.418,-118.543,santa clarita valley,,disk,90
1999,10,20,40.393,-90.155,lewistown,us,other,40
1999,10,23,39.892,-75.3,norwood,us,triangle,900
1999,10,26,40.049,-74.563,cookstown,us,cylinder,1800
1999,10,28,42.008,-91.644,cedar rapids,us,teardrop,40
1999,10,31,42.516,-73.611,nassau,us,triangle,600
1999,11,2,30.451,-91.154,baton rouge,us,triangle,5
1999,11,5,38.645,-121.271,fair oaks  (facing east look straight up),us,diamond,1560
1999,11,9,31.195,-97.741,killeen/fort hood,,light,180
1999,11,10,33.749,-84.388,atlanta,us,unknown,900
1999,11,14,47.098,-118.349,sprague/ritzville (between&#44 i-90),,other,25
1999,11,16,37.45,-86.391,millwood,us,formation,60
1999,11,16,39.17,-91.883,mexico (7 miles west of),us,teardrop,45
1999,11,16,36.428,-84.932,jamestown,us,light,180
1999,11,16,41.989,-88.687,sycamore,us,fireball,240
1999,11,16,42.999,-81.289,london/st.thomas (canada),,fireball,5
1999,11,16,43.251,-83.794,birch run,us,formation,10
1999,11,16,39.388,-77.886,kearneysville,us,light,90
1999,11,16,42.331,-83.046,detroit (or windsor&#44 ont),us,formation,45
1999,11,16,38.598,-80.455,west virginia (interstate 81&#44 near pa border),,fireball,60
1999,11,17,47.606,-122.331,seattle (belmont &amp; pike intersection),us,other,2
1999,11,18,33.158,-117.35,carlsbad,us,triangle,2
1999,11,20,46.5,-80.967,sudbury (canada),ca,cylinder,90
1999,11,24,46.235,-119.223,tri-cities,,circle,5
1999,11,27,41.336,-75.964,dallas,us,triangle,25
1999,11,30,43.867,-79.267,markham (canada),ca,triangle,2700
1999,12,2,47.381,-122.234,kent,us,circle,10
1999,12,5,32.336,-81.392,guyton,us,circle,1
1999,12,8,38.899,-92.123,millersburg,us,chevron,300
1999,12,12,46.324,-120.007,sunnyside,us,other,120
1999,12,16,36.072,-79.792,greensboro,us,cylinder,600
1999,12,20,41.352,-73.009,woodbridge,us,formation,180
1999,12,23,33.614,-93.813,fulton,us,triangle,300
1999,12,26,45.639,-122.66,vancouver,us,unknown,15
1999,12,28,5.976,116.116,kota kinabalu/sabah (malaysia),,disk,120
1999,12,31,37.595,-120.958,keys/ceres (between),,other,600
2000,1,1,29.763,-95.363,houston (nw ),us,sphere,10
2000,1,2,33.2,-117.242,vista,us,disk,3
2000,1,5,38.811,-89.953,edwardsville,us,triangle,45
2000,1,8,35.961,-83.921,knoxville,us,cigar,900
2000,1,11,32.715,-117.156,san diego,us,oval,120
2000,1,15,29.763,-95.363,houston,us,triangle,15
2000,1,17,40.441,-79.996,pittsburgh,us,light,300
2000,1,20,39.961,-82.999,columbus,us,fireball,5
2000,1,23,38.233,-122.636,petaluma,us,disk,180
2000,1,28,40.795,-74.082,east rutherford/secaucus,,triangle,180
2000,2,2,36.223,-115.118,area 51 and mercury,,light,10800
2000,2,4,34.61,-112.315,prescott valley,us,circle,180
2000,2,8,34.172,-118.378,north hollywood,us,oval,720
2000,2,10,27.871,-81.715,alturas (se of),us,fireball,480
2000,2,15,40.767,-73.833,flushing/queens,,egg,60
2000,2,16,42.271,-89.094,rockford,us,circle,1200
2000,2,18,30.332,-81.656,jacksonville,us,triangle,300
2000,2,21,37.38,-122.136,los altos hills,us,disk,2
2000,2,27,41.85,-87.65,chicago,us,triangle,180
2000,3,1,18.456,-67.023,isabela (puerto rico) ?,,changing,120
2000,3,5,42.585,-87.821,kenosha,us,changing,22
2000,3,8,51.991,4.365,delft&#44 zuid (netherlands),,other,900
2000,3,9,35.46,-94.787,sallisaw,us,fireball,30
2000,3,11,35.401,-93.114,dover,us,triangle,1200
2000,3,13,32.776,-79.931,charleston,us,circle,30
2000,3,15,39.482,-89.194,owaneco,us,unknown,60
2000,3,20,39.114,-76.727,fort meade,,fireball,10800
2000,3,24,43.048,-76.148,syracuse,us,light,2
2000,3,28,38.84,-77.429,centreville,us,circle,300
2000,3,31,41.091,-73.918,west nyack,us,other,15
2000,4,4,27.966,-82.8,clearwater,us,other,25
2000,4,8,47.606,-122.331,seattle,us,egg,180
2000,4,12,44.052,-123.086,eugene,us,light,1800
2000,4,15,34.87,-111.76,sedona,us,sphere,120
2000,4,19,33.244,-86.816,alabaster,us,egg,60
2000,4,22,44.089,-87.657,manitowoc,us,light,35
2000,4,24,61.321,-149.568,eagle river,us,light,60
2000,4,28,40.064,-80.721,wheeling,us,triangle,30
2000,4,30,44.565,-123.261,corvallis,us,disk,30
2000,5,4,30.297,-93.743,deweyville,us,diamond,10
2000,5,7,33.542,-117.782,laguna beach,us,disk,3600
2000,5,10,35.227,-80.843,charlotte,us,triangle,900
2000,5,14,40.446,-74.179,union beach,us,triangle,120
2000,5,17,39.746,-75.547,wilmington,us,other,300
2000,5,20,37.687,-96.976,augusta,us,fireball,360
2000,5,25,38.903,-90.07,cottage hills,us,chevron,420
2000,5,29,43.55,-96.7,sioux falls,us,fireball,5
2000,6,2,40.754,-86.069,peru,us,egg,120
2000,6,5,33.836,-79.048,conway,us,triangle,900
2000,6,9,42.999,-76.149,west valley,,light,900
2000,6,11,42.279,-71.417,framingham,us,sphere,120
2000,6,14,43.189,-85.937,ravenna,us,light,6
2000,6,15,51.857,8.565,verl&#44 paderborn&#44 kaunitz (germany),,formation,600
2000,6,18,43.25,-79.833,hamilton (canada),ca,triangle,1200
2000,6,20,34.398,-82.247,ware shoals,us,unknown,120
2000,6,23,50.7,-3.533,exeter (uk/england),gb,other,30
2000,6,25,40.761,-111.89,salt lake city,us,light,120
2000,6,28,35.084,-106.651,albuquerque,us,light,600
2000,6,30,30.267,-97.743,austin,us,cylinder,30
2000,7,1,33.736,-118.291,san pedro,us,oval,15
2000,7,2,40.268,-74.54,east windsor,,oval,180
2000,7,4,47.253,-122.443,tacoma,us,light,1200
2000,7,6,44.958,-124.018,lincon city,,cross,15
2000,7,7,34.052,-118.243,los angeles,us,light,120
2000,7,7,38.582,-121.493,sacramento,us,rectangle,240
2000,7,10,39.808,-104.933,commerce city,us,light,1800
2000,7,12,33.353,-111.788,gilbert,us,diamond,300
2000,7,14,45.524,-122.675,portland,us,flash,15
2000,7,15,45.144,-122.855,aurora/woodburn,,sphere,1800
2000,7,16,35.506,-120.673,mananita,,sphere,6
2000,7,19,31.195,-97.741,fort hood,,light,2
2000,7,21,45.422,-116.314,riggins,us,fireball,3
2000,7,25,44.233,-76.483,kingston (canada),ca,disk,7200
2000,7,26,29.69,-95.899,fulshear,us,fireball,5
2000,7,29,35.957,-75.624,nags head,us,formation,3600
2000,8,1,42.242,-70.89,hingham,us,triangle,120
2000,8,3,33.631,-112.332,surprise,us,light,600
2000,8,4,47.253,-122.443,tacoma,us,light,90
2000,8,7,29.786,-95.824,katy,us,oval,5
2000,8,10,42.376,-71.236,waltham,us,other,60
2000,8,11,34.09,-117.889,covina,us,light,120
2000,8,13,44.339,-107.208,big horn mtns,,fireball,2400
2000,8,15,33.422,-111.822,mesa,us,circle,600
2000,8,16,40.761,-111.89,salt lake city,us,fireball,5
2000,8,19,34.87,-111.76,sedona,us,sphere,5
2000,8,21,45.161,-93.235,blaine,us,changing,240
2000,8,23,50.967,-0.133,burgess hill (uk/england),gb,formation,1800
2000,8,27,38.752,-122.614,middletown,us,other,300
2000,8,31,52.25,-0.883,northampton (uk/england),gb,triangle,600
2000,9,2,39.962,-82.491,hebron,us,light,1200
2000,9,7,33.539,-112.185,glendale,us,triangle,120
2000,9,9,34.532,-83.985,dahlonega,us,changing,3600
2000,9,12,32.256,-107.781,lordsburg/deming,,changing,3600
2000,9,14,34.019,-118.49,santa monica,us,diamond,1200
2000,9,15,50.517,-3.75,ashburton (uk/england),gb,other,1200
2000,9,16,44.167,-77.383,belleville (canada),ca,fireball,30
2000,9,18,32.715,-117.156,san diego,us,oval,30
2000,9,20,28.509,34.514,dahab (sinai),,changing,5
2000,9,22,38.254,-85.759,louisville,us,teardrop,720
2000,9,24,42.035,-93.62,ames,us,flash,300
2000,9,27,38.082,-122.514,bel marin keys,us,light,5
2000,9,30,31.969,-99.902,north texas,,fireball,10
2000,10,1,43.867,-79.267,markham (canada),ca,cigar,600
2000,10,2,29.424,-98.493,san antonio,us,light,900
2000,10,5,42.638,-70.95,topsfield,us,fireball,30
2000,10,8,37.669,-122.08,hayward,us,circle,3600
2000,10,10,47.541,-122.635,port orchard,us,diamond,60
2000,10,13,36.154,-95.993,tulsa,us,fireball,60
2000,10,14,27.336,-82.531,sarasota,us,unknown,180
2000,10,15,45.524,-122.675,portland,us,circle,180
2000,10,19,43.867,-79.033,pickering (canada),ca,circle,600
2000,10,21,44.32,-91.915,alma,us,oval,15
2000,10,23,35.952,-86.669,nolensville,us,unknown,60
2000,10,26,43.8,-79.417,thornhill (canada),ca,triangle,120
2000,10,28,52.367,-1.4,brandon (county durham)(uk/england),gb,teardrop,1080
2000,10,29,34.049,-111.094,dateland/welton,,diamond,600
2000,10,31,41.368,-82.108,elyria,us,unknown,20
2000,11,2,52.229,5.167,hilversum (netherlands),,formation,2
2000,11,4,34.034,-117.042,yucaipa,us,unknown,900
2000,11,8,33.509,-111.898,scottsdale,us,teardrop,5
2000,11,11,38.761,-120.586,pollock pines,us,light,15
2000,11,13,26.64,-81.873,fort myers,us,oval,300
2000,11,15,40.794,-74.151,belleville,us,unknown,240
2000,11,18,28.667,-99.17,dilley  (south of san antonio),us,disk,420
2000,11,20,43.623,-87.794,oostburg,us,flash,6
2000,11,23,32.896,-105.98,el paso and alamogordo (between ),,cigar,180
2000,11,25,34.216,-119.037,camarillo,us,light,10
2000,11,29,45.357,-122.839,sherwood,us,triangle,180
2000,12,2,40.866,-73.036,seldon,,triangle,5
2000,12,6,40.129,-86.607,thorntown,us,unknown,30
2000,12,10,35.278,-93.134,russellville,us,unknown,300
2000,12,12,35.612,-77.367,greenville,us,light,1800
2000,12,16,36.417,-84.314,pioneer,us,light,45
2000,12,19,42.058,-71.25,foxboro,us,circle,15
2000,12,23,32.418,-88.507,toomsuba,us,oval,120
2000,12,25,38.679,-121.772,woodland,us,fireball,420
2000,12,28,35.438,-106.125,cerrilillo,,unknown,600
2000,12,30,37.775,-122.418,san francisco,us,triangle,8
2001,1,1,47.611,-122.199,bellevue,us,circle,600
2001,1,3,51.733,-2.367,cambridge (uk/england),gb,other,40
2001,1,5,29.735,-94.977,baytown,us,cigar,900
2001,1,7,47.606,-122.331,seattle,us,light,120
2001,1,10,34.139,-118.213,eagle rock,us,cigar,240
2001,1,11,42.271,-89.094,rockford,us,circle,1305
2001,1,11,39.961,-105.51,nederland,us,cylinder,4
2001,1,15,34.052,-118.243,los angeles,us,light,15
2001,1,20,-33.925,18.424,cape town (south africa),,triangle,2400
2001,1,23,49.3,10.583,ansbach (germany),de,other,240
2001,1,26,32.903,-96.564,rowlett,us,unknown,7
2001,1,30,36.853,-75.978,virginia beach,us,cylinder,120
2001,2,2,35.148,-114.567,bullhead city,us,light,1500
2001,2,4,49.634,-124.028,garden bay (canada),,oval,1800
2001,2,7,39.205,-76.653,linthicum (bwi airport),us,rectangle,900
2001,2,9,36.102,-87.115,kingston springs,us,light,120
2001,2,11,55.135,-101.097,cold lake/sherridon (canada),,oval,60
2001,2,14,40.598,-124.156,fortuna,us,light,600
2001,2,16,34.181,-118.308,burbank,us,light,300
2001,2,19,38.704,-93.228,sedalia,us,changing,1
2001,2,22,42.322,-83.176,dearborn,us,formation,8
2001,2,25,40.726,-75.394,bath,us,formation,45
2001,3,1,40.714,-74.006,new york city,us,oval,300
2001,3,4,51.333,-1.75,pewsey (uk/england),gb,light,60
2001,3,7,34.019,-118.49,santa monica,us,fireball,300
2001,3,10,35.151,-92.744,morrilton,us,unknown,7200
2001,3,12,35.187,-84.499,reliance,us,light,3600
2001,3,13,43.039,-87.906,milwaukee,us,circle,1200
2001,3,15,31.968,-110.294,benson,us,cigar,15
2001,3,18,38.679,-121.225,orangevale,us,fireball,5
2001,3,19,35.772,-78.639,raleigh,us,light,120
2001,3,21,45.614,-123.942,rockaway beach,us,unknown,240
2001,3,24,36.8,34.633,mersin (turkey),,light,2
2001,3,26,48.726,-119.013,wauconda,us,light,20
2001,3,29,-17.673,-66.741,la paz/cochabamba/potosi,,oval,14400
2001,4,1,12.972,77.595,bangalore (india),,unknown,10
2001,4,4,38.029,-78.477,charlottesville,us,other,180
2001,4,8,41.482,-74.986,lackawaxen,us,light,3
2001,4,12,46.452,-84.722,bay mills township,,fireball,2
2001,4,15,29.424,-98.493,san antonio,us,sphere,2
2001,4,16,39.088,-84.496,central u. s. (in-flight; chicago totampa bay),,oval,30
2001,4,19,40.273,-80.997,cadiz,us,light,300
2001,4,23,39.111,-76.933,burtonsville,us,circle,120
2001,4,25,48.846,-95.763,roseau,us,light,60
2001,4,27,44.206,-73.246,ferrisburg,,triangle,600
2001,4,29,26.962,-82.353,englewood,us,light,300
2001,5,2,34.023,-84.616,kennesaw,us,light,2
2001,5,6,47.606,-122.331,seattle,us,other,600
2001,5,10,28.669,77.454,ghaziabad (india),,unknown,2631600
2001,5,12,35.925,-86.869,franklin,us,formation,120
2001,5,14,-42.883,147.332,hobart (tasmania&#44 australia),au,other,30
2001,5,17,41.525,-88.082,joliet,us,sphere,180
2001,5,19,34.401,-111.002,bear canyon lake,,formation,420
2001,5,21,33.749,-84.388,atlanta,us,light,5
2001,5,23,53.5,-2.217,manchester (uk/england),gb,teardrop,1140
2001,5,26,47.038,-122.899,olympia,us,disk,240
2001,5,29,34.447,-85.904,fyffe,us,oval,900
2001,6,2,1.352,103.82,singapore,,light,600
2001,6,5,46.602,-120.505,yakima,us,light,480
2001,6,7,45.745,-87.064,escanaba,us,light,180
2001,6,10,39.746,-75.547,wilmington,us,circle,10
2001,6,12,32.895,-97.546,azle,us,light,2
2001,6,14,43.443,-81.338,staffa (canada),,light,7
2001,6,15,45.597,-122.992,north plains,us,triangle,60
2001,6,18,40.714,-74.006,new york city,us,cigar,900
2001,6,21,43.667,-79.417,toronto (canada),ca,unknown,60
2001,6,23,35.817,-83.247,cosby,us,fireball,25
2001,6,25,39.874,-76.866,spring grove,us,other,120
2001,6,26,35.043,-120.475,nipomo,us,sphere,120
2001,6,29,47.968,-92.808,gheen,us,unknown,180
2001,6,30,33.262,-112.032,lone butte (gila river indian community),,fireball,7
2001,7,1,36.633,-93.417,kimberling city,us,formation,3600
2001,7,4,55.404,10.402,odense (denmark),,circle,20
2001,7,6,39.414,-77.411,frederick,us,light,300
2001,7,7,46.872,-113.993,missoula,us,rectangle,1500
2001,7,10,36.13,-118.817,springville,us,light,15
2001,7,13,42.971,-82.425,port huron,us,triangle,8
2001,7,15,41.246,-75.882,wilkes-barre,us,triangle,18000
2001,7,15,33.78,-118.262,wilmington,us,fireball,1200
2001,7,15,51.417,-0.467,ashford (uk/england),gb,rectangle,60
2001,7,17,33.66,-117.998,huntington beach,us,diamond,10800
2001,7,20,39.515,-84.398,middletown,us,light,15
2001,7,21,43.354,-124.312,barview,us,triangle,180
2001,7,22,48.4,-89.233,thunder bay (canada),ca,other,60
2001,7,23,43.287,-76.146,central square,us,triangle,20
2001,7,24,43.25,-79.833,hamilton (canada),ca,disk,60
2001,7,27,36.14,-120.359,coalinga (just outside),us,unknown,300
2001,7,29,42.158,-71.145,canton,us,light,7200
2001,7,31,43.073,-89.401,madison,us,light,5
2001,8,1,51.75,-1.25,oxford (uk/england),gb,light,180
2001,8,3,47.754,-122.162,woodinville,us,circle,15
2001,8,5,34.107,-117.806,san dimas,us,cylinder,240
2001,8,7,49.9,-119.483,kelowna (canada),ca,disk,1800
2001,8,10,36.91,-121.756,watsonville,us,diamond,60
2001,8,12,44.65,-63.6,halifax (canada),ca,fireball,120
2001,8,13,35.594,-105.223,las vegas (north of),us,unknown,300
2001,8,15,54.444,-124.254,fort.st.james (canada),,formation,60
2001,8,15,40.089,-98.519,red cloud (rural),us,light,30
2001,8,17,41.14,-104.82,cheyenne,us,other,240
2001,8,18,52.133,-106.667,saskatoon (canada),ca,disk,53
2001,8,19,47.203,-122.239,sumner,us,formation,1380
2001,8,20,37.951,-91.771,rolla,us,light,1080
2001,8,22,37.74,-121.424,tracy,us,light,480
2001,8,25,45.5,-73.583,montreal (canada),ca,fireball,600
2001,8,26,47.606,-122.331,seattle,us,unknown,420
2001,8,28,52.967,-1.167,nottingham (uk/england),gb,other,3
2001,8,30,40.761,-111.89,salt lake city,us,cone,1
2001,9,1,34.87,-111.76,west sedona,us,light,1800
2001,9,3,40.639,-73.641,oceanside,us,fireball,5400
2001,9,6,38.005,-121.805,antioch,us,fireball,5
2001,9,8,48.084,-121.968,granite falls,us,cigar,60
2001,9,10,39.1,-94.578,kansas city,us,light,30
2001,9,11,40.79,-73.96,madhatan,,egg,60
2001,9,11,41.638,-70.904,fairhaven,us,circle,10
2001,9,12,40.677,-95.859,nebraska city,us,light,86400
2001,9,14,47.799,-122.497,kingston,us,light,1
2001,9,15,40.417,-86.875,lafayette,us,unknown,60
2001,9,17,38.999,-84.627,florence,us,flash,1800
2001,9,21,60.984,25.65,lahti (finland),,other,10
2001,9,22,1.352,103.82,singapore,,disk,900
2001,9,26,40.714,-74.006,new york city,us,light,3600
2001,9,29,4.612,101.114,ipoh (malaysia),,fireball,1800
2001,9,30,34.208,-117.108,running springs,us,fireball,10
2001,10,3,47.611,-122.199,bellevue,us,other,2
2001,10,6,41.491,-87.674,park forest,us,triangle,15
2001,10,10,41.004,-92.374,ottumwa,us,rectangle,300
2001,10,13,33.436,-112.349,avondale,us,triangle,120
2001,10,15,52.771,-1.555,swadlincote&#44 derbyshire (uk/england),,circle,20
2001,10,16,44.927,-123.492,polk county,,unknown,120
2001,10,18,38.861,-86.487,bedford,us,rectangle,900
2001,10,22,42.991,-89.533,verona,us,triangle,7
2001,10,26,35.471,-93.466,clarksville,us,cylinder,60
2001,10,28,35.149,-90.049,memphis,us,light,60
2001,10,31,29.424,-98.493,san antonio,us,formation,240
2001,11,1,38.419,-82.445,huntington,us,unknown,60
2001,11,3,41.85,-87.65,chicago,us,other,60
2001,11,7,47.606,-122.331,seattle,us,formation,30
2001,11,11,41.43,-73.681,carmel,us,triangle,120
2001,11,15,47.659,-117.425,spokane,us,light,3600
2001,11,15,46.997,-120.547,ellensburg,us,light,180
2001,11,18,39.729,-104.831,aurora,us,light,300
2001,11,18,39.729,-104.831,aurora,us,formation,120
2001,11,18,45.524,-122.675,portland (suburbs),us,light,900
2001,11,21,26.011,-80.15,hollywood,us,chevron,90
2001,11,25,36.748,-119.771,fresno,us,light,10
2001,11,28,52.923,-1.475,derby/leicester border (uk/england),,triangle,300
2001,12,1,39.1,-94.578,kansas city,us,diamond,120
2001,12,1,40.925,-98.342,grand island,us,fireball,300
2001,12,1,32.759,-97.797,weatherford,us,formation,30
2001,12,4,40.714,-74.006,new york city (staten island),us,light,2
2001,12,9,39.162,-84.457,cincinnati,us,unknown,4500
2001,12,15,53.413,-8.244,republic of ireland (on beach),,other,120
2001,12,19,41.558,-73.052,waterbury,us,other,120
2001,12,24,52.154,-9.567,kerry (republic of ireland),,cigar,40
2001,12,26,40.925,-73.048,port jefferson station,us,sphere,6
2001,12,31,29.691,-95.209,pasadena,us,rectangle,1
2002,1,3,39.613,-105.016,littleton,us,light,20
2002,1,7,38.89,-77.084,arlington,us,fireball,2
2002,1,8,40.234,-111.658,provo,us,fireball,40
2002,1,11,29.211,-81.023,daytona beach,us,light,3600
2002,1,14,38.956,-76.946,hyattsville,us,sphere,15
2002,1,16,37.804,-122.27,oakland,us,light,1200
2002,1,20,40.31,-75.13,doylestown,us,light,2
2002,1,23,52.583,-2.133,wolverhampton (uk/england),gb,other,900
2002,1,25,33.436,-112.349,avondale,us,light,4
2002,1,30,35.9,-109.033,navajo,us,triangle,180.39
2002,2,2,39.874,-76.866,spring grove,us,flash,2
2002,2,2,40.111,-88.207,urbana,us,circle,420
2002,2,5,42.473,-122.802,eagle point,us,light,60
2002,2,8,45.524,-122.675,portland,us,disk,3600
2002,2,10,32.725,-97.321,fort worth,us,fireball,300
2002,2,13,43.933,-79.533,king city (canada),ca,triangle,300
2002,2,15,36.175,-115.136,las vegas,us,unknown,5
2002,2,17,34.436,-83.107,lavonia,us,unknown,3600
2002,2,20,43.134,-70.927,durham,us,light,3600
2002,2,23,34.12,-118.932,santa monica mountains,,unknown,18000
2002,2,24,41.233,-80.449,hermitage,us,rectangle,7200
2002,2,28,41.85,-87.65,chicago,us,sphere,2700
2002,3,4,42.129,-70.919,hingham/rockland,,light,3
2002,3,7,7.291,80.634,kandy (sri lanka),,changing,120
2002,3,12,53.383,-2.6,warrington (uk/england),gb,disk,12
2002,3,15,36.175,-115.136,las vegas,us,circle,240
2002,3,16,42.813,-94.527,rolfe,us,unknown,120
2002,3,19,36.166,-86.784,nashville,us,disk,2
2002,3,22,43.25,-79.833,hamilton (canada),ca,teardrop,300
2002,3,28,38.627,-90.198,st. louis,us,diamond,660
2002,3,31,34.107,-117.806,san dimas,us,disk,1
2002,4,2,42.874,-77.288,canandaigua,us,light,300
2002,4,8,-34.929,138.599,adelaide (south australia),au,light,600
2002,4,11,51.083,-114.083,calgary (canada),ca,unknown,2700
2002,4,15,39.837,-105.037,westminster,us,triangle,300
2002,4,17,36.748,-119.771,fresno,us,disk,180
2002,4,20,35.938,-77.791,rocky mount,us,light,120
2002,4,23,40.714,-74.006,new york city,us,changing,600
2002,4,27,38.007,-89.658,steeleville,us,fireball,5
2002,5,1,45.099,-123.394,sheridan,us,circle,600
2002,5,4,50.62,-3.414,exmouth&#44 devonshire (uk/england),,disk,1800
2002,5,7,49.883,-97.167,winnipeg (canada),ca,unknown,1800
2002,5,10,26.497,-82.079,st. james city,us,chevron,900
2002,5,12,40.853,-73.412,huntington station,us,light,600
2002,5,15,54.801,-131.44,inside passage,,oval,120
2002,5,18,32.903,-96.564,rowlett,us,disk,120
2002,5,20,34.278,-119.292,ventura,us,cone,3600
2002,5,22,43.194,-71.572,indian springs,,light,300
2002,5,26,35.001,-92.63,bigelow,us,light,180
2002,5,29,45.4,-75.85,aylmer (canada),ca,sphere,600
2002,6,1,32.205,-95.855,athens,us,unknown,7200
2002,6,2,39.952,-75.164,philadelphia,us,light,30
2002,6,5,36.01,-84.27,oak ridge,us,sphere,1800
2002,6,6,36.175,-115.136,las vegas,us,sphere,180
2002,6,8,38.582,-121.493,sacramento,us,other,300
2002,6,9,42.439,-123.327,grants pass,us,oval,120
2002,6,12,-33.861,151.205,sydney (chatswood) (nsw&#44 australia),au,circle,5
2002,6,15,33.448,-112.073,phoenix,us,formation,180
2002,6,15,30.439,-97.62,pflugerville,us,light,90
2002,6,17,52.519,5.471,lelystad (netherlands),,fireball,25
2002,6,19,34.058,-106.891,socorro,us,cylinder,2700
2002,6,21,42.44,-85.649,plainwell,us,circle,300
2002,6,24,26.318,-80.1,deerfield beach,us,sphere,1200
2002,6,26,39.489,-83.637,sabina,us,sphere,2
2002,6,28,43.627,-89.771,wisconsin dells,us,egg,120
2002,6,30,34.87,-111.76,sedona,us,triangle,1200
2002,7,2,56.029,14.157,kristianstad (sweden),,disk,60
2002,7,4,40.864,-76.553,elysburg,us,fireball,5
2002,7,5,36.975,-121.952,capitola,us,chevron,2
2002,7,7,44.058,-121.314,bend,us,triangle,7200
2002,7,9,37.639,-120.996,modesto,us,light,300
2002,7,11,40.572,-111.86,sandy,,light,3
2002,7,13,41.404,-75.399,hamlin,us,fireball,180
2002,7,14,37.639,-120.996,modesto,us,changing,960
2002,7,15,41.741,-105.974,rock river (southeast of),us,oval,120
2002,7,17,33.814,-85.761,jacksonville,us,circle,15
2002,7,20,39.476,-120.142,stampede lake,,other,2
2002,7,21,54.0,-128.7,kitimat (canada),ca,disk,2
2002,7,23,43.682,-80.028,west hills,,formation,120
2002,7,25,37.692,-97.337,wichita,us,formation,30
2002,7,26,39.685,-83.93,xenia,us,circle,1
2002,7,28,36.261,-90.971,pocahontas,us,disk,3600
2002,7,29,37.31,-81.135,bluefield/green valley,,light,7200
2002,7,31,48.386,-114.06,hungry horse,us,light,30
2002,8,1,39.961,-82.999,columbus,us,circle,4
2002,8,2,-40.901,174.886,new zealand,,other,1560
2002,8,3,33.979,-118.032,whittier,us,unknown,60
2002,8,5,36.761,-121.766,petaluma/sausalito,,flash,1
2002,8,6,49.133,-125.9,tofino (canada),ca,disk,30
2002,8,8,-27.471,153.024,brisbane (qld&#44 australia),au,formation,600
2002,8,9,34.049,-111.094,arizona,,triangle,300
2002,8,10,42.321,-85.18,battle creek,us,fireball,4
2002,8,11,35.084,-106.651,albuquerque,us,circle,120
2002,8,12,34.721,-116.159,ludlow,us,oval,30
2002,8,12,52.367,-1.25,rugby (uk/england),gb,triangle,20
2002,8,14,-14.599,-28.673,atlantic ocean (between nassau&#44 bahamas&#44 and florida),,light,13
2002,8,15,39.768,-86.158,indianapolis,us,oval,180
2002,8,16,45.3,19.95,kac (yugoslavia),,disk,300
2002,8,18,35.373,-119.018,bakersfield (1-30&#44 north of),us,cigar,900
2002,8,19,35.023,-94.381,hartford,us,unknown,300
2002,8,21,43.073,-89.401,madison,us,triangle,300
2002,8,22,28.244,-82.719,new port richey,us,light,600
2002,8,24,26.962,-82.353,englewood,us,light,52623200
2002,8,26,49.517,-96.683,steinbach (canada),ca,changing,240
2002,8,28,42.407,-124.421,gold beach,us,light,420
2002,8,30,41.769,-71.129,somerset,us,unknown,5
2002,9,1,30.608,-87.34,cantonment,us,rectangle,420
2002,9,3,29.883,-97.941,san marcos,us,light,3600
2002,9,5,30.517,-86.482,riceville,,flash,10
2002,9,6,44.797,-106.956,sheridan,us,oval,20
2002,9,7,43.611,-73.18,castleton,us,light,20
2002,9,8,41.954,-72.789,granby,us,oval,300
2002,9,10,32.686,-117.182,coronado,us,light,1200
2002,9,12,41.678,-79.88,hydetown/townville (route 77 thru),,formation,2400
2002,9,14,30.294,-81.393,jacksonville beach,us,triangle,30
2002,9,15,50.3,-89.033,armstrong (canada),ca,formation,5
2002,9,18,35.915,-82.065,spruce pine,us,light,300
2002,9,19,35.198,-111.651,flagstaff,us,unknown,600
2002,9,19,33.689,-78.887,myrtle beach,us,light,15
2002,9,23,51.514,-0.094,london (uk/england),gb,triangle,960
2002,9,25,38.911,-94.382,lee&#39s summit,,light,40
2002,9,28,33.422,-111.822,mesa,us,other,120
2002,9,29,38.115,-82.317,brabant (netherlands),,light,45
2002,10,1,46.888,-122.687,rainier,us,light,240
2002,10,3,33.471,-81.975,augusta,us,light,30
2002,10,5,31.969,-99.902,texas (ne),,cylinder,30
2002,10,7,39.84,-88.955,decatur (near),us,fireball,25
2002,10,9,49.883,-97.167,winnipeg (canada),ca,light,15
2002,10,12,-25.274,133.775,australia (rural),,other,420
2002,10,14,39.613,-105.016,littleton,us,disk,600
2002,10,14,40.448,-122.297,anderson,us,light,300
2002,10,15,48.899,-115.171,rexford,us,chevron,30
2002,10,16,29.187,-82.14,ocala,us,light,120
2002,10,19,45.862,-122.67,lacenter,,other,4
2002,10,23,42.653,-73.757,albany,us,triangle,900
2002,10,28,33.776,-112.528,wittmann,us,flash,60
2002,10,30,40.761,-111.89,salt lake city,us,unknown,22
2002,11,1,36.208,-115.983,pahrump,us,disk,600
2002,11,2,33.854,-118.133,lakewood,us,triangle,900
2002,11,6,32.222,-110.926,tucson,us,oval,10
2002,11,9,25.774,-80.194,miami,us,rectangle,15
2002,11,11,41.678,-79.88,townville,us,disk,30
2002,11,14,34.023,-84.616,kennesaw,us,sphere,60
2002,11,16,35.468,-97.516,oklahoma city,us,cylinder,600
2002,11,19,38.441,-92.992,stover,us,circle,14400
2002,11,19,39.165,-86.526,bloomington,us,light,300
2002,11,23,42.979,-93.317,swaledale,us,circle,300
2002,11,27,46.888,-122.687,rainier,us,triangle,109800
2002,11,28,-31.952,115.861,perth (western australia),au,light,300
2002,11,29,32.269,-107.758,deming,us,other,1800
2002,12,1,40.714,-74.006,new york city (manhattan),us,formation,60
2002,12,3,51.923,4.255,maassluis (netherlands),,other,30
2002,12,6,48.199,-122.124,arlington,us,fireball,1
2002,12,8,31.846,-102.367,odessa,us,oval,2
2002,12,10,41.122,-80.333,new wilmington,us,egg,1380
2002,12,14,35.222,-97.439,norman,us,triangle,20
2002,12,17,27.273,-80.358,port st. lucie,,circle,900
2002,12,21,43.079,-75.751,canastota,us,unknown,300
2002,12,24,40.416,-120.652,susanville,us,light,180
2002,12,27,33.448,-112.073,phoenix,us,chevron,60
2002,12,31,47.824,-122.294,shoreline/edmonds,,light,2
2003,1,1,41.137,-95.891,bellevue,us,disk,240
2003,1,2,-27.656,151.855,wyreema (australia),au,oval,5
2003,1,5,49.683,-125.0,courtenay (canada),ca,other,2700
2003,1,7,40.947,-124.099,mckinleyville,us,unknown,1800
2003,1,9,-34.45,150.446,mittagong (australia),au,triangle,25
2003,1,10,34.175,-86.844,cullman,us,diamond,600
2003,1,14,36.04,-114.981,henderson,us,cylinder,900
2003,1,15,38.645,-121.271,fair oaks,us,circle,600
2003,1,17,53.698,-2.695,leyland&#44 lancashire (uk/england),,oval,300
2003,1,18,34.114,-116.431,yucca valley (rural),us,diamond,900
2003,1,22,40.041,-86.874,crawfordsville,us,unknown,1560
2003,1,24,37.974,-122.53,san rafael,us,triangle,120
2003,1,28,39.419,-76.781,owings mills (area),us,formation,90
2003,1,30,43.679,-70.445,gorham,us,unknown,10
2003,2,1,38.349,-122.51,eldridge,us,fireball,120
2003,2,2,28.538,-81.379,orlando (1hr south),us,oval,180
2003,2,5,41.276,-72.869,east haven,us,unknown,2
2003,2,8,40.741,-74.384,chatham,us,triangle,30
2003,2,10,48.783,-123.7,duncan (canada),ca,circle,300
2003,2,13,47.606,-122.331,seattle (outside),us,triangle,1980
2003,2,15,42.886,-78.879,buffalo,us,other,10
2003,2,16,44.84,-117.921,wingville,us,unknown,600
2003,2,19,54.317,-130.333,prince rupert (canada),ca,sphere,30
2003,2,22,40.973,-117.735,winnemucca,us,disk,300
2003,2,24,30.242,-93.251,westlake,us,triangle,10
2003,2,27,26.062,-80.233,davie,us,changing,300
2003,3,3,47.424,-120.309,wenatchee,us,cross,300
2003,3,7,38.805,-77.047,alexandria,us,light,1200
2003,3,10,32.715,-117.156,san diego,us,light,420
2003,3,12,-31.962,141.46,broken hill (australia),au,light,300
2003,3,15,40.345,-74.184,holmdel,us,fireball,1
2003,3,16,41.602,-71.251,portsmouth,us,fireball,300
2003,3,22,38.965,-92.36,highway i-70,,changing,4
2003,3,29,46.24,-63.21,cornwall (canada),ca,circle,300
2003,4,1,41.849,-72.572,south windsor,us,oval,90
2003,4,5,51.75,-1.25,oxford (uk/england),gb,unknown,300
2003,4,7,49.883,-97.167,winnipeg (canada),ca,circle,2
2003,4,11,52.633,1.3,norwich (uk/england),gb,unknown,40
2003,4,12,44.811,-91.498,eau claire,us,formation,30
2003,4,15,-33.093,151.589,lake macquarie (nsw&#44 australia),,egg,60
2003,4,20,39.449,-75.717,middletown,us,triangle,480
2003,4,22,48.76,-122.487,bellingham,us,light,480
2003,4,25,33.455,-112.043,glendale/phoenix,,flash,120
2003,4,28,41.241,-77.001,williamsport,us,triangle,120
2003,5,1,40.557,-74.285,woodbridge,us,changing,300
2003,5,3,40.805,-81.935,wooster,us,unknown,120
2003,5,6,51.75,-1.25,oxford (uk/england),gb,light,60
2003,5,10,43.749,-87.977,plymouth,us,disk,15
2003,5,13,33.835,-117.914,anaheim,us,cylinder,120
2003,5,15,34.019,-118.49,santa monica,us,chevron,60
2003,5,16,33.641,-117.602,rancho santa margarita,us,disk,60
2003,5,20,35.956,-80.006,high point,us,triangle,20
2003,5,22,37.481,-97.244,wichita/mulvane,,other,10
2003,5,26,29.424,-98.493,san antonio,us,triangle,600
2003,5,29,40.585,-105.084,fort collins,us,light,120
2003,6,1,41.141,-73.358,westport,us,triangle,10
2003,6,3,35.16,-99.359,retrop,us,disk,180
2003,6,6,38.805,-77.047,alexandria,us,sphere,14
2003,6,8,34.278,-119.292,ventura,us,other,60
2003,6,9,47.186,-122.292,puyallup,us,fireball,60
2003,6,13,33.521,-86.802,birmingham,us,disk,420
2003,6,15,51.733,-2.367,cambridge (uk/england),gb,other,300
2003,6,16,49.25,-123.133,vancouver (canada),ca,light,12
2003,6,19,41.441,-85.265,kendallville,us,light,1410
2003,6,22,51.641,4.862,oosterhout (netherlands),,cigar,5
2003,6,25,41.385,2.173,barcelona (spain),,light,1
2003,6,28,37.386,-122.083,mountain view,us,unknown,4
2003,6,29,37.22,-77.288,prince george,us,sphere,120
2003,6,30,40.73,-80.31,new brighton,us,other,600
2003,7,1,36.064,-75.706,kitty hawk,us,light,1800
2003,7,4,42.166,-95.793,mapleton,us,other,15
2003,7,5,29.532,-98.28,randolph afb,,disk,90
2003,7,6,36.949,-84.097,corbin,us,formation,60
2003,7,8,32.783,-96.8,dallas,us,disk,2
2003,7,9,36.14,-120.359,coalinga,us,light,10
2003,7,11,51.333,1.433,ramsgate (uk/england),gb,unknown,3600
2003,7,12,55.7,-2.467,greenlaw (uk/england),gb,unknown,300
2003,7,14,45.267,-66.067,saint john (canada),ca,disk,120
2003,7,15,45.5,-73.583,montreal (canada),ca,light,40
2003,7,16,37.951,-91.771,rolla,us,light,1200
2003,7,17,49.1,-117.717,trail (canada),ca,light,4
2003,7,19,40.714,-74.006,new york city (queens),us,light,900
2003,7,21,34.908,-111.463,mormon lake,us,triangle,300
2003,7,23,42.416,-96.418,dakota city,us,unknown,300
2003,7,25,39.944,-75.394,upper providence township,,light,420
2003,7,26,45.524,-122.675,portland,us,fireball,120
2003,7,27,30.129,77.269,yamuna nagar&#44 haryana (india),,circle,900
2003,7,28,45.68,-111.038,bozeman,us,oval,240
2003,7,30,48.397,-102.938,tioga,us,unknown,1800
2003,8,1,33.78,-118.262,wilmington,us,diamond,45
2003,8,2,48.397,-102.938,tioga,us,disk,120
2003,8,3,51.25,0.75,kent (uk/england),gb,light,300
2003,8,6,51.167,-115.567,banff (canada),ca,cross,3600
2003,8,7,42.098,-76.05,endicott,us,unknown,30
2003,8,9,36.169,-75.756,duck,us,sphere,30
2003,8,10,32.746,-96.998,grand prairie,us,light,3
2003,8,13,54.4,-126.65,houston (canada),ca,other,300
2003,8,14,47.523,-120.469,cashmere,us,fireball,10
2003,8,15,42.292,-85.587,kalamazoo,us,other,20
2003,8,16,53.075,-1.398,swanwick/derbyshire (uk/england),,triangle,15
2003,8,17,-29.735,151.738,glen innes (australia),au,light,10
2003,8,19,41.801,-87.937,hinsdale,us,oval,3
2003,8,20,33.882,-118.116,bellflower,us,fireball,1800
2003,8,22,48.233,-101.296,minot (burlington actually but put minot bc its 7 miles a),us,oval,7
2003,8,23,36.04,-114.981,henderson,us,oval,14400
2003,8,24,47.763,-122.204,bothell,us,unknown,5
2003,8,25,33.448,-112.073,phoenix,us,unknown,960
2003,8,26,49.683,-115.983,kimberley (canada),ca,flash,120
2003,8,27,42.25,-82.433,tilbury (canada),ca,light,600
2003,8,28,35.189,-114.052,kingman,us,triangle,300
2003,8,30,26.132,-97.631,san benito,us,chevron,300
2003,8,30,41.385,2.173,barcelona (spain),,formation,15
2003,8,30,34.052,-118.243,los angeles,us,sphere,1800
2003,8,31,44.943,-123.034,salem,us,light,6
2003,9,1,39.251,-76.521,dundalk,us,sphere,300
2003,9,3,32.608,-80.085,kiawah island,us,triangle,300
2003,9,4,37.52,-122.275,belmont,us,fireball,2
2003,9,6,40.714,-74.006,new york city,us,other,3
2003,9,8,42.9,-79.617,dunnville (canada),ca,other,50
2003,9,9,36.407,-83.006,rogersville,us,light,2700
2003,9,10,26.203,-98.23,mcallen,us,circle,5
2003,9,11,39.808,-104.933,commerce city,us,formation,300
2003,9,12,29.751,-82.425,alachua county,us,light,2
2003,9,13,32.515,-117.038,tijuana (mexico),,oval,900
2003,9,15,40.8,-96.667,lincoln (west of),us,unknown,5
2003,9,15,43.013,-83.688,flint,us,oval,10
2003,9,17,43.667,-79.417,toronto (canada),ca,unknown,1800
2003,9,19,35.379,-81.379,cherryville,us,rectangle,600
2003,9,20,46.551,-119.489,hanford site,,formation,180
2003,9,21,37.428,-121.906,milpitas,us,unknown,900
2003,9,22,35.14,-93.922,boonville,,light,2400
2003,9,23,39.261,-81.672,washington,us,circle,615
2003,9,24,40.531,-112.297,tooele,us,triangle,30
2003,9,25,29.763,-95.363,houston,us,other,8
2003,9,26,33.689,-78.887,myrtle beach,us,light,30
2003,9,28,36.175,-115.136,las vegas (close to),us,triangle,60
2003,9,29,39.518,-119.988,verdi,us,oval,5
2003,10,1,43.501,-70.443,saco,us,circle,120
2003,10,2,32.981,-80.033,goose creek,us,diamond,60
2003,10,4,36.61,-88.315,murray,us,changing,5400
2003,10,6,39.519,-104.761,parker,us,chevron,60
2003,10,8,31.815,-85.843,banks (outside of),us,disk,2
2003,10,9,42.049,-124.267,brookings harbor,,light,180
2003,10,11,41.493,-99.902,nebraska (above?&#44 or above south dakota),,cigar,2
2003,10,13,25.567,-108.467,guasave sinaloa,,changing,480
2003,10,14,28.538,-81.379,orlando,us,formation,15
2003,10,15,34.769,-92.267,north little rock,us,changing,300
2003,10,17,32.783,-96.8,dallas,us,unknown,300
2003,10,18,36.533,-82.327,blountville,us,changing,240
2003,10,18,42.867,-88.333,mukwonago,us,fireball,1200
2003,10,20,39.828,-77.904,mercersburg,us,unknown,3600
2003,10,20,36.072,-79.792,greensboro,us,fireball,15
2003,10,21,28.386,-80.742,cocoa,us,fireball,4
2003,10,23,20.653,-105.225,puerto vallarto (mexico),,light,2700
2003,10,24,29.763,-95.363,houston,us,rectangle,10
2003,10,26,40.021,-122.099,los molinos,us,triangle,10
2003,10,29,33.471,-82.505,thomson,us,flash,5
2003,10,30,38.979,-90.981,troy,us,triangle,30
2003,10,31,44.149,-73.341,panton,us,triangle,180
2003,11,2,30.08,-95.417,spring,us,unknown,60
2003,11,4,47.736,-122.645,poulsbo,us,circle,10
2003,11,5,43.667,-79.417,toronto (canada),ca,light,10
2003,11,7,52.983,-122.483,quesnel (canada),ca,light,4
2003,11,8,41.175,-76.075,glen lyon,us,sphere,2
2003,11,8,27.099,-82.454,venice,us,flash,2
2003,11,8,42.321,-85.18,battle creek,us,diamond,40
2003,11,11,33.451,-86.997,hueytown,us,other,120
2003,11,12,40.225,-105.271,lyons,us,sphere,10800
2003,11,14,53.7,-2.333,haslingden (uk/england),gb,rectangle,20
2003,11,15,46.268,-89.178,watersmeet,us,light,7200
2003,11,16,34.168,-118.605,woodland  hills,us,light,10
2003,11,18,42.906,-88.139,muskego,us,other,600
2003,11,19,43.55,-80.25,guelph (canada),ca,formation,12
2003,11,20,37.051,-122.015,scotta valley,,other,3
2003,11,21,33.669,-117.822,irvine,us,cigar,10
2003,11,22,34.532,-83.985,dahlonega,us,circle,10
2003,11,23,34.953,-120.435,santa maria,us,light,10
2003,11,25,38.386,-81.836,st. albans,us,other,5
2003,11,27,32.715,-117.156,san diego,us,fireball,30
2003,11,30,45.786,-92.381,siren,us,oval,3600
2003,12,1,42.724,-83.036,washington,us,changing,7200
2003,12,2,36.521,-86.026,lafayette,us,unknown,15
2003,12,4,43.067,-79.95,caledonia (canada),ca,light,10
2003,12,6,-25.274,133.775,australia,,other,1800
2003,12,8,41.464,-81.509,beachwood,us,unknown,1200
2003,12,11,34.148,-118.144,pasadena,us,light,1800
2003,12,13,38.805,-77.047,alexandria,us,fireball,5
2003,12,15,5.664,100.902,baling (malaysia),,circle,240
2003,12,16,34.444,-118.609,valencia,us,circle,40
2003,12,18,47.606,-122.331,seattle,us,fireball,3
2003,12,20,32.905,-80.667,walterboro,us,disk,600
2003,12,21,32.767,-96.599,mesquite,us,unknown,5
2003,12,23,33.759,-118.006,westminster,us,circle,300
2003,12,25,-34.891,137.459,hardwrickbay (australia),,sphere,60
2003,12,27,34.37,-83.235,carnesville,us,circle,180
2003,12,28,47.305,-68.153,grand isle,us,changing,600
2003,12,30,38.805,-77.047,alexandria,us,light,900
2003,12,31,47.424,-120.309,wenatchee,us,light,1800
2004,1,2,38.846,-77.307,fairfax county,us,other,900
2004,1,5,53.917,-122.767,prince george (canada),ca,light,120
2004,1,7,34.003,-84.145,duluth,us,triangle,300
2004,1,10,32.299,-90.185,jackson,us,unknown,900
2004,1,12,-35.276,149.134,canberra (australia),au,circle,60
2004,1,15,42.366,-87.934,in-flight (exact location unknown),,unknown,300
2004,1,17,34.484,-114.322,lake havasu city,us,light,3600
2004,1,20,37.694,-122.085,castro valley,us,light,120
2004,1,22,47.857,-121.696,gold bar,us,flash,1
2004,1,23,32.755,-97.331,dallas/fort worth,,light,600
2004,1,27,53.033,-7.299,portlaoise (republic of ireland),,triangle,60
2004,1,29,40.155,-74.829,levittown,us,triangle,1800
2004,1,31,44.098,-70.232,auburn,us,light,900
2004,2,2,46.233,-63.133,charlottetown (canada),ca,fireball,2
2004,2,5,26.625,-81.625,lehigh acres,us,other,120
2004,2,7,33.953,-117.395,riverside,us,light,45
2004,2,10,34.108,-117.289,san bernardino,us,other,60
2004,2,11,41.763,-70.722,wareham,us,light,1200
2004,2,13,47.606,-122.331,seattle,us,fireball,45
2004,2,14,40.714,-74.006,new york city (staten island),us,oval,2
2004,2,15,39.165,-86.526,bloomington,us,triangle,15
2004,2,17,38.969,-77.341,reston,us,fireball,5
2004,2,20,42.5,-96.4,sioux city,us,oval,300
2004,2,22,53.55,-113.5,edmonton (canada),ca,formation,1800
2004,2,25,52.967,-1.167,nottingham (uk/england),gb,diamond,1320
2004,2,28,39.938,-77.661,chambersburg,us,unknown,600
2004,3,1,42.683,-81.797,newbury (canada),,egg,120
2004,3,4,33.722,-116.374,palm desert,us,unknown,900
2004,3,6,30.086,-94.102,beaumont,us,disk,300
2004,3,7,34.263,-118.426,pacoima,us,disk,1800
2004,3,9,32.222,-110.926,tucson,us,circle,15
2004,3,10,37.058,-120.849,los banos,us,disk,2700
2004,3,12,35.822,-121.067,bryson hesperia,,unknown,3600
2004,3,13,41.738,-95.703,woodbine,us,light,1380
2004,3,15,31.516,-106.149,faben (50 mi east of el paso),,disk,300
2004,3,16,33.448,-112.073,phoenix,us,fireball,120
2004,3,17,39.961,-82.999,columbus (south on us 23),us,unknown,10
2004,3,19,38.972,-95.235,lawrence,us,light,60
2004,3,21,39.961,-82.999,columbus,us,light,120
2004,3,22,36.297,-86.888,greenville,us,egg,2400
2004,3,25,38.618,-94.505,freeman,us,light,30
2004,3,26,27.499,-82.575,bradenton,us,disk,240
2004,3,28,36.835,-76.299,portsmouth,us,oval,120
2004,3,29,53.55,-113.5,edmonton (canada),ca,formation,3
2004,3,31,48.699,-94.343,west central,us,unknown,300
2004,4,2,34.052,-118.243,los angeles,us,disk,2700
2004,4,4,36.175,-115.136,las vegas,us,other,600
2004,4,5,40.785,-122.308,i-5 north in federal way,,fireball,30
2004,4,7,10.9,123.083,victorias city (philippines),,disk,900
2004,4,8,43.287,-93.202,manly,us,triangle,20
2004,4,9,40.745,-86.765,monticello,us,circle,60
2004,4,10,45.517,-73.667,saint-laurent (canada),ca,light,300
2004,4,13,31.318,-95.456,crockett,us,unknown,30
2004,4,15,31.464,-100.437,san angelo,us,cylinder,300
2004,4,15,35.278,-93.134,russelville,,light,6
2004,4,16,39.035,-76.907,belstville,,fireball,60
2004,4,19,33.746,-117.825,tustin,us,sphere,180
2004,4,21,41.997,21.428,skopje (macedonia),,light,900
2004,4,24,41.573,-87.784,tinley park,us,light,300
2004,4,26,39.1,-94.578,kansas city,us,other,60
2004,4,28,33.415,-111.909,tempe,us,sphere,2
2004,4,30,38.562,-75.575,seaford/old bridge,,disk,600
2004,5,1,41.68,-74.15,gardner,,sphere,300
2004,5,3,34.058,-106.891,socorro (approx 30 miles s. of&#44 on i-25),us,light,10800
2004,5,5,35.687,-105.937,santa fe,us,oval,6
2004,5,6,33.631,-112.332,surprise,us,light,900
2004,5,8,38.425,-82.213,ona,us,triangle,300
2004,5,9,55.55,-3.85,douglas (uk/england),gb,light,1800
2004,5,10,44.924,-92.959,woodbury,us,triangle,900
2004,5,12,40.015,-105.27,boulder,us,formation,30
2004,5,14,32.715,-117.156,san diego,us,triangle,45
2004,5,15,40.692,-89.795,hanna city,us,other,7200
2004,5,16,42.403,-86.274,south haven,us,sphere,3
2004,5,17,20.653,-105.225,puerto vallarto (mexico),,light,2400
2004,5,19,43.071,-80.119,ohsweken (canada),,triangle,6
2004,5,22,27.947,-82.459,tampa,us,unknown,60
2004,5,24,29.984,-90.153,metairie,us,formation,1800
2004,5,27,33.991,-118.459,venice,us,other,240
2004,5,29,40.881,-74.114,garfield,us,light,120
2004,5,31,37.639,-120.996,modesto,us,unknown,120
2004,6,1,39.4,-8.225,portugal,,fireball,2700
2004,6,3,48.76,-122.487,bellingham,us,unknown,30
2004,6,4,39.655,-106.828,eagle,us,flash,20
2004,6,5,45.1,-91.489,bloomer,us,light,3600
2004,6,8,41.697,-86.245,argos,us,other,300
2004,6,11,42.886,-78.879,buffalo,us,oval,60
2004,6,13,39.519,-104.761,parker,us,triangle,60
2004,6,14,33.539,-112.185,glendale,us,formation,300
2004,6,15,35.471,-93.466,clarksville,us,oval,120
2004,6,17,18.698,-68.451,bavaro (dominican republic),,light,10
2004,6,19,42.4,-82.183,chatham (canada),ca,circle,420
2004,6,20,37.781,-90.422,farmington,us,light,300
2004,6,22,34.953,-120.435,santa maria,us,unknown,900
2004,6,24,34.163,-118.384,valley village,,circle,30
2004,6,25,45.524,-122.675,portland,us,fireball,120
2004,6,26,43.667,-79.417,toronto (canada),ca,fireball,60
2004,6,27,40.714,-74.006,new york city,us,fireball,1
2004,6,30,34.049,-111.094,arizona (southern; on highway),,circle,1200
2004,6,30,33.953,-117.395,riverside,us,light,4
2004,7,2,37.428,-121.906,milpitas,us,triangle,2
2004,7,4,32.834,-97.229,north richland hills,us,light,300
2004,7,4,39.172,-120.138,tahoe city,us,other,30
2004,7,6,41.499,-81.696,cleveland,us,unknown,20
2004,7,7,33.208,-92.666,el dorado,us,unknown,5
2004,7,9,27.8,-97.396,corpus christi,us,oval,30
2004,7,10,45.636,-84.787,levering,us,other,3
2004,7,11,54.912,-1.383,sunderland (uk/england),gb,egg,240
2004,7,13,39.53,-119.813,reno,us,light,10800
2004,7,14,37.989,-84.478,lexington,us,light,300
2004,7,15,44.849,-123.233,monmouth,us,circle,15
2004,7,17,39.846,-84.54,lewisburg,us,triangle,420
2004,7,18,51.317,9.5,kassel (germany) (on highway),de,oval,180
2004,7,20,40.034,-76.505,columbia,us,unknown,120
2004,7,21,40.064,-80.721,wheeling,us,sphere,600
2004,7,23,44.427,-124.067,waldport,us,cigar,120
2004,7,25,34.73,-86.586,huntsville,us,triangle,1200
2004,7,26,41.159,-101.002,hershey (or sutherland),us,other,1800
2004,7,29,51.482,-3.179,cardiff (jamaica),,unknown,5
2004,7,31,35.084,-106.651,albuquerque,us,circle,180
2004,8,2,41.162,-112.026,roy,us,light,0.5
2004,8,4,42.497,-82.937,roseville,us,formation,300
2004,8,6,43.683,-79.767,brampton (canada),ca,changing,5
2004,8,8,38.005,-121.805,antioch,us,flash,3600
2004,8,9,47.606,-122.331,seattle,us,cigar,3600
2004,8,11,49.1,-122.65,langley (canada),ca,cigar,120
2004,8,12,39.961,-82.999,columbus,us,unknown,60
2004,8,13,32.736,-97.108,arlington,us,sphere,4
2004,8,15,44.052,-123.086,eugene,us,triangle,2100
2004,8,15,30.489,-99.772,junction,us,disk,900
2004,8,16,35.507,-97.762,yukon,us,other,2
2004,8,18,47.863,-121.815,sultan,us,light,4
2004,8,19,44.65,-93.243,lakeville,us,light,43200
2004,8,19,39.885,-122.545,paskenta,us,triangle,300
2004,8,20,40.714,-74.006,new york city (staten island),us,oval,900
2004,8,21,41.496,-87.849,frankfort,us,triangle,2700
2004,8,21,41.573,-87.784,tinley park,us,light,1200
2004,8,21,41.603,-87.744,oak forest,us,changing,1500
2004,8,23,39.648,-104.987,englewood,us,sphere,900
2004,8,25,6.524,3.379,lagos (nigeria),,circle,30
2004,8,27,55.01,-1.628,newcastle/alwick (between) (uk/england),,flash,1200
2004,8,30,55.833,-4.25,glasgow (uk/scotland),gb,unknown,34
2004,8,31,41.49,-72.276,salem,us,other,1200
2004,8,31,41.733,-77.642,galeton,us,egg,600
2004,9,1,39.202,-83.612,hillsboro,us,light,1200
2004,9,2,49.317,-123.067,north vancouver (canada),ca,unknown,120
2004,9,4,29.894,-81.315,st. augustine,us,cylinder,6
2004,9,4,40.013,-119.557,pyramid lake,,light,10800
2004,9,6,32.844,-97.143,bedford,us,sphere,50
2004,9,8,33.987,-118.184,maywood,us,triangle,25
2004,9,10,34.075,-84.294,alpharetta,us,oval,60
2004,9,11,41.177,-112.003,riverdale,us,light,120
2004,9,13,28.677,-81.328,casselberry,us,disk,30
2004,9,14,42.066,-94.867,carroll,us,triangle,120
2004,9,16,-37.688,176.165,tauranga (new zealand),,light,10800
2004,9,17,33.448,-112.073,phoenix,us,sphere,11700
2004,9,18,35.307,-106.424,placitas,us,disk,1800
2004,9,20,34.54,-112.468,prescott,us,light,60
2004,9,21,40.058,-74.137,brick,,triangle,480
2004,9,22,43.546,-116.812,marsing,us,unknown,2700
2004,9,25,42.331,-83.046,detroit,us,light,300
2004,9,26,39.952,-75.164,philadelphia,us,formation,300
2004,9,29,37.975,-87.556,evansville,us,circle,20
2004,10,1,35.084,-106.651,albuquerque,us,oval,3600
2004,10,3,33.89,-84.143,lilburn,us,circle,5
2004,10,4,45.719,-123.934,manzanita,us,triangle,120
2004,10,6,43.117,-79.2,thorold (canada),ca,triangle,600
2004,10,8,32.715,-117.156,san diego,us,light,5
2004,10,10,55.288,23.958,kedainiai (lithuania),,oval,240
2004,10,12,40.25,-103.799,fort morgan,us,sphere,1500
2004,10,13,42.563,-114.46,twin falls,us,light,60
2004,10,15,41.647,-73.569,wingdale,us,other,4
2004,10,16,32.715,-117.156,san diego,us,changing,300
2004,10,18,43.661,-70.256,portland,us,other,900
2004,10,21,43.167,-79.233,st. catharines (canada),ca,triangle,60
2004,10,23,33.69,-117.773,east bay,,circle,120
2004,10,24,40.064,-80.721,wheeling,us,unknown,300
2004,10,27,40.598,-124.156,fortuna,us,fireball,180
2004,10,28,41.332,-74.357,florida,us,triangle,900
2004,10,29,33.66,-117.998,huntington beach,us,sphere,20
2004,10,31,41.627,-93.712,urbandale,us,triangle,15
2004,10,31,41.585,-87.843,orland hills,us,light,1500
2004,10,31,38.907,-77.036,washington&#44 d.c.,,light,15
2004,10,31,41.573,-87.784,tinley park,us,triangle,1500
2004,11,1,10.327,-84.436,ciudad quesada (costa rica),,oval,2
2004,11,3,43.048,-76.148,syracuse,us,formation,5
2004,11,5,12.972,77.595,bangalore (india),,other,10
2004,11,6,41.956,-78.644,bradford,us,fireball,15
2004,11,7,42.321,-85.18,battle creek,us,light,20
2004,11,8,30.332,-81.656,jacksonville,us,oval,4
2004,11,10,36.434,-99.39,woodward,us,unknown,600
2004,11,12,34.187,-118.448,van nuys,us,light,300
2004,11,15,56.744,15.909,nybro (sweden),,diamond,600
2004,11,16,35.623,-117.67,ridgecrest,us,triangle,180
2004,11,18,34.981,-79.224,raeford,us,disk,120
2004,11,21,51.514,-0.094,london (heathrow&#44 cranford) (uk/england),gb,light,600
2004,11,25,35.468,-97.516,oklahoma city,us,disk,4
2004,11,27,44.943,-123.034,salem,us,light,300
2004,11,30,39.714,-82.599,lancaster,us,fireball,5
2004,12,2,41.656,-71.603,west greenwich,,triangle,90
2004,12,4,40.441,-79.996,pittsburgh,us,light,60
2004,12,5,27.446,-80.326,fort pierce,us,triangle,300
2004,12,8,45.5,-73.583,montreal (canada),ca,oval,30
2004,12,10,41.898,-84.037,adrian,us,triangle,120
2004,12,12,34.392,-118.542,santa clarita,us,sphere,1800
2004,12,13,40.565,-75.1,upper black eddy,us,circle,10
2004,12,14,32.832,-79.828,charleston/mt. pleasant,,sphere,5
2004,12,16,38.964,-84.081,bethel,us,triangle,300
2004,12,18,49.25,-123.133,vancouver (canada),ca,flash,1
2004,12,22,52.467,-1.917,birmingham (uk/england),gb,flash,3
2004,12,25,29.946,78.164,hardwar (uttarakhand) (india),,circle,120
2004,12,28,39.467,-87.414,terre haute,us,light,900
2004,12,31,33.92,-80.342,sumter,us,light,180
2005,1,1,27.947,-82.459,tampa,us,disk,60
2005,1,4,44.919,-123.316,dallas,us,circle,600
2005,1,7,25.774,-80.194,miami,us,other,10
2005,1,10,43.752,-85.147,barryton,us,circle,0.5
2005,1,12,39.729,-121.836,chico,us,light,600
2005,1,14,40.758,-82.516,mansfield,us,formation,30
2005,1,15,42.171,-88.048,kildeer,us,unknown,3
2005,1,19,42.169,-75.13,walton,us,disk,2
2005,1,23,41.85,-87.65,chicago,us,other,2700
2005,1,26,41.828,-80.872,saybrook,us,rectangle,1800
2005,1,29,33.831,-118.281,carson,us,unknown,300
2005,2,1,40.07,-81.882,adamsville,us,formation,900
2005,2,3,40.585,-105.084,fort collins,us,triangle,9
2005,2,6,38.582,-121.493,sacramento,us,other,1800
2005,2,9,34.136,-118.774,agoura hills,us,sphere,30
2005,2,11,34.011,-95.509,hugo,us,formation,20
2005,2,13,34.278,-119.292,ventura,us,other,15
2005,2,15,40.274,-76.885,harrisburg,us,other,60
2005,2,17,40.862,-73.634,glen cove,us,diamond,1500
2005,2,19,43.155,-77.616,rochester,us,egg,30
2005,2,22,33.145,-96.839,dallas-frisco (between&#44 enroute),,light,10
2005,2,23,47.203,-122.239,sumner,us,other,300
2005,2,25,30.396,-88.885,biloxi,us,sphere,720
2005,2,27,33.707,-117.084,winchester,us,changing,420
2005,3,1,43.12,-85.56,rockford,us,circle,600
2005,3,3,32.847,-115.569,imperial,us,diamond,86400
2005,3,4,43.133,-80.75,woodstock (outside of) (canada),ca,triangle,600
2005,3,6,49.1,-122.65,langley (canada),ca,fireball,5
2005,3,8,38.525,-98.533,claflin,us,light,3000
2005,3,9,38.212,-86.122,coydon,,circle,3300
2005,3,10,46.721,-92.104,superior,us,disk,300
2005,3,12,43.983,-124.099,florence,us,unknown,7
2005,3,13,46.286,-119.283,richland,us,triangle,180
2005,3,15,44.668,-67.464,kennebec,us,light,300
2005,3,16,36.257,-83.086,bulls gap,us,disk,180
2005,3,19,42.575,-71.999,gardner,us,triangle,120
2005,3,21,37.694,-122.085,castro valley,us,egg,120
2005,3,22,42.106,-84.248,brooklyn (lake columbia area),us,light,300
2005,3,27,25.865,-80.325,hialeah gardens,us,unknown,120
2005,3,30,45.595,-121.177,the dalles,us,sphere,120
2005,4,1,34.87,-111.76,sedona,us,formation,60
2005,4,3,34.754,-77.431,jacksonville,us,chevron,5
2005,4,6,34.935,-117.198,hinkley,us,formation,120
2005,4,9,40.739,-89.016,el paso (rural),us,fireball,5
2005,4,10,36.974,-122.03,santa cruz,us,unknown,0
2005,4,12,45.383,-74.017,dorion (canada),ca,oval,60
2005,4,14,41.66,-71.456,east greenwich,us,triangle,120
2005,4,16,14.833,-91.517,quetzaltenango (guatemala),,triangle,60
2005,4,17,39.048,-95.678,topeka,us,egg,1
2005,4,19,17.921,-87.961,san pedro town&#44 ambergris caye&#44 belize,,fireball,15
2005,4,22,30.227,-85.025,orange county (location unspecified),us,other,5
2005,4,25,54.133,-115.683,whitecourt (canada),ca,flash,240
2005,4,28,33.448,-112.073,phoenix,us,formation,45
2005,4,29,43.222,-71.714,contocook,,unknown,300
2005,4,29,28.018,-82.113,plant city,us,formation,120
2005,5,1,34.579,-118.116,palmdale,us,sphere,300
2005,5,4,41.41,-85.846,milford (between cities),us,flash,5
2005,5,7,43.528,-71.471,laconia,us,disk,10
2005,5,10,38.934,-77.178,mclean,us,other,60
2005,5,12,27.901,-81.586,lake wales,us,formation,1800
2005,5,15,39.267,-81.562,parkersburg,us,oval,20
2005,5,15,41.988,-87.792,chicago &quot;highway&quot;,,cylinder,60
2005,5,18,19.322,-81.241,grand cayman (on cruise; caribbean),,circle,10
2005,5,20,40.611,-79.837,russelllton,,unknown,300
2005,5,22,32.386,-96.848,waxahachie,us,cylinder,120
2005,5,24,33.306,-111.841,chandler,us,other,600
2005,5,26,48.011,-122.767,chimacum,us,flash,8
2005,5,29,39.792,-86.273,indianapolis speedway,,disk,12
2005,6,1,28.176,-80.59,satellite beach,us,oval,2
2005,6,2,39.877,-90.373,arenzville,us,triangle,300
2005,6,5,47.678,-122.337,seattle/tukwila,,triangle,30
2005,6,7,-41.439,147.135,launceston (tas&#44 australia),au,oval,120
2005,6,8,46.602,-120.505,yakima,us,triangle,2
2005,6,11,33.631,-112.332,surprise,us,triangle,25
2005,6,13,34.392,-118.542,santa clarita,us,other,60
2005,6,15,47.481,-118.253,harrington (5 miles west of),us,diamond,180
2005,6,15,25.034,-77.396,bahamas,,oval,600
2005,6,16,38.333,-82.949,grayson,us,triangle,90
2005,6,18,40.761,-111.89,salt lake city,us,sphere,1200
2005,6,19,45.418,-122.458,damascus,us,circle,60
2005,6,21,34.139,-118.213,eagle rock,us,disk,30
2005,6,23,43.541,-72.399,hartland,us,sphere,3600
2005,6,24,41.154,-80.702,girard,us,triangle,37800
2005,6,26,40.582,-112.431,south willow canyon (above grantsville),,diamond,60
2005,6,28,33.544,-84.234,stockbridge,us,other,2
2005,6,30,31.129,53.282,abarkooh (iran),,light,2
2005,6,30,37.34,-95.261,parsons,us,unknown,25
2005,7,2,43.916,-122.822,dexter,us,diamond,240
2005,7,3,47.251,-122.44,tacoma area,,unknown,600
2005,7,4,38.834,-104.821,colorado springs,us,circle,60
2005,7,5,43.167,-79.233,st. catharines (canada),ca,disk,600
2005,7,6,36.748,-119.771,fresno,us,light,1500
2005,7,8,33.962,-118.352,inglewood,us,triangle,30
2005,7,9,41.85,-87.65,chicago,us,formation,1045
2005,7,10,41.499,-81.696,cleveland,us,light,120
2005,7,11,41.011,-74.118,waldwick,us,unknown,240
2005,7,13,39.729,-104.831,aurora,us,light,60
2005,7,14,33.448,-112.073,phoenix,us,light,240
2005,7,15,39.15,-123.207,ukiah,us,unknown,600
2005,7,16,33.87,-117.924,fullerton,us,chevron,1800
2005,7,18,41.726,-87.825,hickory hills,us,circle,60
2005,7,20,42.014,-78.835,allegheny state park,,other,40
2005,7,22,37.759,-77.48,ashland,us,circle,600
2005,7,24,43.181,-95.856,sheldon,us,triangle,4
2005,7,27,26.062,-80.233,davie,us,teardrop,600
2005,7,28,37.872,-122.272,berkeley,us,fireball,300
2005,7,30,33.092,-97.046,highland village,us,flash,5
2005,7,31,46.997,-120.547,ellensburg,us,other,300
2005,8,1,38.441,-122.713,santa rosa,us,light,60
2005,8,4,40.765,-73.818,flushing,us,light,109800
2005,8,5,41.85,-87.65,chicago,us,cigar,300
2005,8,6,45.833,-64.2,amherst (canada),ca,unknown,600
2005,8,9,55.266,-128.066,gitanyow (canada),,disk,1
2005,8,11,33.961,-83.378,athens (near),us,cross,300
2005,8,12,34.052,-118.243,los angeles,us,light,10
2005,8,15,35.481,-105.879,lamy,us,unknown,5
2005,8,15,48.091,-105.64,wolf point,us,other,180
2005,8,18,-32.15,116.0,armadale (australia),au,other,300
2005,8,20,32.948,-112.716,gila bend,us,changing,600
2005,8,22,45.304,-83.477,presque isle,us,light,240
2005,8,24,34.421,-119.697,santa barbara,us,changing,180
2005,8,27,36.14,-120.359,coalinga,us,triangle,240
2005,8,28,34.052,-118.243,los angeles,us,changing,300
2005,8,31,41.526,-87.889,mokena,us,light,1200
2005,9,1,47.5,-111.3,great falls,us,light,180
2005,9,2,47.253,-122.443,tacoma,us,unknown,180
2005,9,3,47.606,-122.331,seattle,us,light,300
2005,9,5,56.25,-3.167,fife (uk/england),gb,light,18000
2005,9,6,39.553,-77.995,hedgesville,us,light,1800
2005,9,8,34.052,-118.243,los angeles (downtown),us,oval,300
2005,9,10,32.461,-84.988,columbus,us,disk,300
2005,9,11,40.656,-73.61,baldwin,us,sphere,1800
2005,9,12,32.222,-110.926,tucson,us,other,1200
2005,9,14,48.55,-109.683,havre,us,formation,600
2005,9,15,33.306,-111.841,chandler,us,circle,1200
2005,9,17,33.381,-84.8,newnan,us,cigar,120
2005,9,18,41.747,-88.05,woodridge,us,light,120
2005,9,19,43.539,-89.463,portage,us,formation,1200
2005,9,20,42.752,-76.834,romulus,us,flash,3
2005,9,21,40.257,-74.396,manalapan,us,unknown,300
2005,9,22,33.953,-117.395,riverside,us,fireball,180
2005,9,23,44.388,-71.174,gorham,us,formation,7200
2005,9,25,35.689,139.692,tokyo (japan),,triangle,5
2005,9,28,38.784,-90.481,st. charles,us,changing,20
2005,9,29,40.714,-73.559,east meadow,us,other,5
2005,9,30,42.245,-73.891,new york state thruway / catskill,,light,900
2005,9,30,41.573,-87.784,tinley park,us,circle,900
2005,9,30,41.63,-87.854,orland park,us,triangle,900
2005,10,1,41.573,-87.784,tinley park,us,formation,1200
2005,10,1,41.051,-86.603,winnamac,,triangle,15
2005,10,2,40.714,-74.006,new york city (manhattan),us,other,180
2005,10,4,37.923,-90.555,bonne terre,us,triangle,1800
2005,10,5,27.966,-82.8,clearwater,us,chevron,6
2005,10,8,35.251,-91.736,searcy,us,oval,240
2005,10,10,25.933,-80.163,north miami beach,us,oval,1800
2005,10,11,30.694,-88.043,mobile,us,light,1800
2005,10,13,36.188,-96.49,terlton,us,cylinder,120
2005,10,14,34.165,-114.3,earp,us,unknown,120
2005,10,15,42.979,-71.073,brentwood,us,light,1200
2005,10,16,42.496,-82.9,saint clair shores,,other,2400
2005,10,18,61.218,-149.9,anchorage,us,other,7200
2005,10,20,30.267,-97.743,austin,us,triangle,30
2005,10,22,43.106,-76.218,liverpool,us,unknown,1800
2005,10,23,34.754,-77.431,jacksonville,us,triangle,120
2005,10,25,25.79,-80.13,miami beach,us,chevron,60
2005,10,27,37.878,-100.676,pierceville,us,unknown,30
2005,10,29,33.631,-112.332,surprise,us,fireball,420
2005,10,30,38.978,-122.838,kelseyville,us,fireball,15
2005,10,31,39.34,-74.576,linwood,us,light,5
2005,10,31,40.038,-76.306,lancaster,us,light,3
2005,11,1,38.784,-90.481,st. charles,us,fireball,15
2005,11,2,38.251,-87.581,fort branch,us,light,180
2005,11,3,26.142,-81.795,naples,us,other,7
2005,11,4,41.99,-70.976,west bridgewater,us,light,300
2005,11,5,31.079,-97.605,nolanville,us,oval,20
2005,11,7,30.401,-86.864,navarre,us,other,300
2005,11,7,40.049,-78.644,schellsburg,us,oval,180
2005,11,9,38.411,-87.761,mt carmel,us,unknown,300
2005,11,10,42.957,-83.831,swartz creek,us,triangle,600
2005,11,11,30.226,-93.217,lake charles,us,triangle,420
2005,11,13,40.794,-74.151,belleville,us,unknown,10
2005,11,15,33.089,-96.886,the colony,us,light,600
2005,11,15,37.548,-121.987,fremont,us,sphere,2
2005,11,17,34.278,-119.292,ventura,us,oval,240
2005,11,19,39.739,-104.984,denver,us,cigar,1200
2005,11,20,-37.814,144.963,melbourne (australia),au,light,2700
2005,11,22,38.049,-122.157,benicia,us,fireball,900
2005,11,23,42.341,-75.165,frankin,,unknown,300
2005,11,25,41.899,-87.94,elmhurst,us,disk,40
2005,11,27,48.513,-122.611,anacortes,us,light,480
2005,11,29,52.333,-0.183,huntingdon (cambridgeshire) (uk/england),gb,diamond,900
2005,12,2,40.259,-74.124,monmouth,,teardrop,2
2005,12,4,34.052,-118.243,west los angeles,us,light,3600
2005,12,6,48.421,-122.333,mount vernon,us,unknown,120
2005,12,9,35.623,-95.96,okmulgee,us,cigar,180
2005,12,12,34.538,-96.218,coalgate,us,light,900
2005,12,13,41.405,-81.723,parma,us,flash,2
2005,12,15,28.538,-81.379,orlando,us,unknown,30
2005,12,19,41.85,-87.65,chicago,us,fireball,2
2005,12,21,30.633,-97.677,georgetown,us,circle,7200
2005,12,23,37.124,-82.601,pound,us,changing,900
2005,12,26,20.533,76.183,buldana (india),,light,30
2005,12,28,36.874,-94.877,miami,us,light,300
2006,1,1,37.775,-122.418,san francisco,us,light,900
2006,1,3,51.267,0.517,maidstone (uk/england),gb,fireball,180
2006,1,4,33.608,-117.744,aliso viejo,us,other,20
2006,1,7,38.167,-80.912,mt. lookout,us,cigar,20
2006,1,10,43.801,-91.239,la crosse,us,other,300
2006,1,14,31.962,-89.87,mendenhall,us,diamond,180
2006,1,15,32.718,-100.918,synder,,other,900
2006,1,19,41.437,-71.502,wakefield,us,light,345
2006,1,21,27.947,-82.459,tampa,us,unknown,1200
2006,1,25,41.318,-81.346,aurora,us,other,1200
2006,1,28,33.748,-116.971,hemet,us,disk,60
2006,1,31,33.817,-81.101,gaston,us,light,5
2006,2,5,32.895,-97.546,azle,us,cross,120
2006,2,7,31.472,-90.897,meadville,us,cylinder,60
2006,2,9,38.254,-94.336,butler,us,unknown,1500
2006,2,12,53.717,-0.333,kingston upon hull (uk/england),gb,unknown,30
2006,2,14,37.807,-98.426,turon,us,light,180
2006,2,16,37.287,-121.949,campbell,us,unknown,60
2006,2,18,34.618,-79.009,lumberton,us,formation,6300
2006,2,22,42.099,-75.918,binghamton (40 south of kbgm),us,unknown,240
2006,2,24,34.282,-118.438,san fernando,us,triangle,20
2006,2,27,36.01,-84.27,oak ridge,us,fireball,10
2006,3,2,28.699,-81.308,winter springs,us,light,3
2006,3,4,52.417,-1.55,coventry (uk/england),gb,cross,360
2006,3,6,34.236,-118.485,north hills,,egg,300
2006,3,9,58.595,25.014,estonia,,teardrop,180
2006,3,11,32.157,-94.337,carthage,us,circle,600
2006,3,13,32.715,-117.156,san diego,us,circle,7200
2006,3,14,42.429,-112.124,downey,us,cigar,900
2006,3,15,41.661,-72.78,new britain,us,triangle,240
2006,3,17,41.089,-74.014,nanuet,us,oval,1200
2006,3,19,38.805,-77.047,alexandria,us,fireball,2
2006,3,23,33.74,-116.412,rancho mirage,us,fireball,45
2006,3,25,39.017,-94.281,blue springs,us,unknown,20
2006,3,29,40.167,-105.101,longmont,us,other,300
2006,3,31,9.925,78.12,madurai (india),,unknown,60
2006,4,2,37.339,-121.894,san jose,us,other,900
2006,4,4,34.823,-118.944,frazier park,us,circle,60
2006,4,5,47.402,-122.323,des moines,us,fireball,2
2006,4,7,36.852,-121.401,hollister,us,unknown,180
2006,4,9,32.783,-96.8,dallas,us,changing,360
2006,4,12,50.783,-0.467,east preston (uk/england),gb,light,120
2006,4,15,39.452,-74.728,mays landing,us,cigar,3
2006,4,16,-31.952,115.861,perth (australia),au,triangle,7
2006,4,18,32.111,-98.536,deleon,,light,20
2006,4,20,44.022,-92.47,rochester,us,circle,240
2006,4,22,35.822,-105.916,chupadero,us,disk,1200
2006,4,25,45.333,-93.734,biglake,,light,240
2006,4,28,40.428,-74.416,east brunswick,us,fireball,20
2006,4,29,45.524,-122.675,portland,us,changing,1200
2006,5,1,36.175,-115.136,las vegas,us,diamond,150
2006,5,3,29.763,-95.363,houston,us,sphere,20
2006,5,6,34.817,-97.406,maysville,us,light,30
2006,5,7,47.659,-117.425,spokane,us,disk,300
2006,5,10,41.376,-123.475,somes bar,us,light,8
2006,5,12,38.617,-121.327,carmichael,us,triangle,240
2006,5,14,39.162,-84.457,cincinnati,us,circle,180
2006,5,16,42.788,-86.109,holland,us,unknown,240
